info,nombre,categ,tipo,emisor,admin,ambito,tema,lon,lat,region,cut_reg,provincia,cut_pro,comuna,cut_com
Cuarteles de Carabineros,TENENCIA VISVIRI (F),Base,TENENCIA,Carabineros de Chile,Carabineros de Chile,Sociedad y cultura,Infraestructura,-69.47702097013651,-17.595014119695406,Arica y Parinacota,15,Parinacota,152,General Lagos,15202
Cuarteles de Carabineros,1RA. COM. ARICA,Base,COMISARIA,Carabineros de Chile,Carabineros de Chile,Sociedad y cultura,Infraestructura,-70.31180000039943,-18.478289999859044,Arica y Parinacota,15,Arica,151,Arica,15101
Cuarteles de Carabineros,2DA. COM. PUTRE,Base,COMISARIA,Carabineros de Chile,Carabineros de Chile,Sociedad y cultura,Infraestructura,-69.55935101360114,-18.195069384627516,Arica y Parinacota,15,Parinacota,152,Putre,15201
Cuarteles de Carabineros,3RA. COM. ARICA,Base,COMISARIA,Carabineros de Chile,Carabineros de Chile,Sociedad y cultura,Infraestructura,-70.29381000042522,-18.470430000365273,Arica y Parinacota,15,Arica,151,Arica,15101
Cuarteles de Carabineros,PREFECTURA DE CARABS. ARICA,Base,PREFECTURA,Carabineros de Chile,Carabineros de Chile,Sociedad y cultura,Infraestructura,-70.31205999994053,-18.478160000442276,Arica y Parinacota,15,Arica,151,Arica,15101
Cuarteles de Carabineros,RETEN ALCERRECA (F),Base,RETEN,Carabineros de Chile,Carabineros de Chile,Sociedad y cultura,Infraestructura,-69.66040638565934,-17.992306253113505,Arica y Parinacota,15,Parinacota,152,General Lagos,15202
Cuarteles de Carabineros,RETEN CAQUENA (F),Base,RETEN,Carabineros de Chile,Carabineros de Chile,Sociedad y cultura,Infraestructura,-69.20179621488808,-18.054582827029094,Arica y Parinacota,15,Parinacota,152,Putre,15201
Cuarteles de Carabineros,RETEN CENTRAL (F),Base,RETEN,Carabineros de Chile,Carabineros de Chile,Sociedad y cultura,Infraestructura,-69.95927638900697,-18.361654722557553,Arica y Parinacota,15,Arica,151,Arica,15101
Cuarteles de Carabineros,RETEN CHAPIQUIÑA,Base,RETEN,Carabineros de Chile,Carabineros de Chile,Sociedad y cultura,Infraestructura,-69.54841535376723,-18.37189662911085,Arica y Parinacota,15,Parinacota,152,Putre,15201
Cuarteles de Carabineros,ZONA DE CARABS. ARICA-PARINACOTA,Base,ZONA,Carabineros de Chile,Carabineros de Chile,Sociedad y cultura,Infraestructura,-70.31206399987313,-18.478153000340182,Arica y Parinacota,15,Arica,151,Arica,15101
Cuarteles de Carabineros,RETEN CHILCAYA (F),Base,RETEN,Carabineros de Chile,Carabineros de Chile,Sociedad y cultura,Infraestructura,-69.08471177592213,-18.7940289303283,Arica y Parinacota,15,Parinacota,152,Putre,15201
Cuarteles de Carabineros,RETEN CODPA,Base,RETEN,Carabineros de Chile,Carabineros de Chile,Sociedad y cultura,Infraestructura,-69.74426273395895,-18.833653146031065,Arica y Parinacota,15,Arica,151,Camarones,15102
Cuarteles de Carabineros,RETEN GUALLATIRE (F),Base,RETEN,Carabineros de Chile,Carabineros de Chile,Sociedad y cultura,Infraestructura,-69.1542838070828,-18.49725345834928,Arica y Parinacota,15,Parinacota,152,Putre,15201
Cuarteles de Carabineros,RETEN POCONCHILE (F),Base,RETEN,Carabineros de Chile,Carabineros de Chile,Sociedad y cultura,Infraestructura,-70.06649551767158,-18.451903270664804,Arica y Parinacota,15,Arica,151,Arica,15101
Cuarteles de Carabineros,RETEN SAN MIGUEL DE AZAPA,Base,RETEN,Carabineros de Chile,Carabineros de Chile,Sociedad y cultura,Infraestructura,-70.17958358658686,-18.518914907229895,Arica y Parinacota,15,Arica,151,Arica,15101
Cuarteles de Carabineros,RETEN TACORA (F),Base,RETEN,Carabineros de Chile,Carabineros de Chile,Sociedad y cultura,Infraestructura,-69.72439764965509,-17.771957191849786,Arica y Parinacota,15,Parinacota,152,General Lagos,15202
Cuarteles de Carabineros,SUBCOM. CHACALLUTA (F),Base,SUBCOMISARIA,Carabineros de Chile,Carabineros de Chile,Sociedad y cultura,Infraestructura,-70.30444199984265,-18.36166699973051,Arica y Parinacota,15,Arica,151,Arica,15101
Cuarteles de Carabineros,SUBCOM. CHINCHORRO NORTE,Base,SUBCOMISARIA,Carabineros de Chile,Carabineros de Chile,Sociedad y cultura,Infraestructura,-70.29279000042278,-18.4458100002156,Arica y Parinacota,15,Arica,151,Arica,15101
Cuarteles de Carabineros,SUBCOM. I.A.T. ARICA,Base,SUBCOMISARIA,Carabineros de Chile,Carabineros de Chile,Sociedad y cultura,Infraestructura,-70.30024999997379,-18.486210000078618,Arica y Parinacota,15,Arica,151,Arica,15101
Cuarteles de Carabineros,TENENCIA CARRETERA ARICA,Base,TENENCIA CARRETERAS,Carabineros de Chile,Carabineros de Chile,Sociedad y cultura,Infraestructura,-70.17924700007477,-19.160613000147475,Arica y Parinacota,15,Arica,151,Camarones,15102
Cuarteles de Carabineros,RETEN CHUCUYO (F),Base,RETEN,Carabineros de Chile,Carabineros de Chile,Sociedad y cultura,Infraestructura,-69.32150938884685,-18.21853562378845,Arica y Parinacota,15,Parinacota,152,Putre,15201
Cuarteles de Carabineros,TENENCIA CHUNGARA (F),Base,TENENCIA,Carabineros de Chile,Carabineros de Chile,Sociedad y cultura,Infraestructura,-69.13823533515523,-18.28164755518362,Arica y Parinacota,15,Parinacota,152,Putre,15201
Cuarteles de Carabineros,2DA. COM. POZO ALMONTE,Base,COMISARIA,Carabineros de Chile,Carabineros de Chile,Sociedad y cultura,Infraestructura,-69.78572082081911,-20.256168702156568,Tarapacá,01,Tamarugal,014,Pozo Almonte,01401
Cuarteles de Carabineros,1RA. COM. IQUIQUE,Base,COMISARIA,Carabineros de Chile,Carabineros de Chile,Sociedad y cultura,Infraestructura,-70.15077700024827,-20.21864200015827,Tarapacá,01,Iquique,011,Iquique,01101
Cuarteles de Carabineros,PREFECTURA DE CARABS. IQUIQUE,Base,PREFECTURA,Carabineros de Chile,Carabineros de Chile,Sociedad y cultura,Infraestructura,-70.15291900030238,-20.214622000247243,Tarapacá,01,Iquique,011,Iquique,01101
Cuarteles de Carabineros,3RA. COM. ALTO HOSPICIO,Base,COMISARIA,Carabineros de Chile,Carabineros de Chile,Sociedad y cultura,Infraestructura,-70.09350499999583,-20.2732719999108,Tarapacá,01,Iquique,011,Alto Hospicio,01107
Cuarteles de Carabineros,RETEN CANCOSA (F),Base,RETEN,Carabineros de Chile,Carabineros de Chile,Sociedad y cultura,Infraestructura,-68.60156200043123,-19.854714999911995,Tarapacá,01,Tamarugal,014,Pica,01405
Cuarteles de Carabineros,RETEN LA TIRANA,Base,RETEN,Carabineros de Chile,Carabineros de Chile,Sociedad y cultura,Infraestructura,-69.6591288665728,-20.33500022785393,Tarapacá,01,Tamarugal,014,Pozo Almonte,01401
Cuarteles de Carabineros,RETEN MAMIÑA,Base,RETEN,Carabineros de Chile,Carabineros de Chile,Sociedad y cultura,Infraestructura,-69.21731381132543,-20.070741529622257,Tarapacá,01,Tamarugal,014,Pozo Almonte,01401
Cuarteles de Carabineros,RETEN PISAGUA,Base,RETEN,Carabineros de Chile,Carabineros de Chile,Sociedad y cultura,Infraestructura,-70.2117410405986,-19.59626760327157,Tarapacá,01,Tamarugal,014,Huara,01404
Cuarteles de Carabineros,RETEN RIO LOA (M.C.),Base,RETEN,Carabineros de Chile,Carabineros de Chile,Sociedad y cultura,Infraestructura,-70.05673599966515,-21.424503000222153,Tarapacá,01,Iquique,011,Iquique,01101
Cuarteles de Carabineros,SUBCOM. COLCHANE (F),Base,SUBCOMISARIA,Carabineros de Chile,Carabineros de Chile,Sociedad y cultura,Infraestructura,-68.63793334168591,-19.27638288270943,Tarapacá,01,Tamarugal,014,Colchane,01403
Cuarteles de Carabineros,SUBCOM. I.A.T. IQUIQUE,Base,SUBCOMISARIA,Carabineros de Chile,Carabineros de Chile,Sociedad y cultura,Infraestructura,-70.13630099953467,-20.236423000357977,Tarapacá,01,Iquique,011,Iquique,01101
Cuarteles de Carabineros,ZONA DE CARABS. TARAPACÁ,Base,ZONA,Carabineros de Chile,Carabineros de Chile,Sociedad y cultura,Infraestructura,-70.15291900021235,-20.21461899970217,Tarapacá,01,Iquique,011,Iquique,01101
Cuarteles de Carabineros,TENENCIA HUARA,Base,TENENCIA CARRETERAS,Carabineros de Chile,Carabineros de Chile,Sociedad y cultura,Infraestructura,-69.76706116664681,-19.995661800236913,Tarapacá,01,Tamarugal,014,Huara,01404
Cuarteles de Carabineros,TENENCIA UJINA (F),Base,TENENCIA,Carabineros de Chile,Carabineros de Chile,Sociedad y cultura,Infraestructura,-68.69484111742605,-20.70808055820458,Tarapacá,01,Tamarugal,014,Pica,01405
Cuarteles de Carabineros,TENENCIA PICA,Base,TENENCIA,Carabineros de Chile,Carabineros de Chile,Sociedad y cultura,Infraestructura,-69.33726079292676,-20.49665829468039,Tarapacá,01,Tamarugal,014,Pica,01405
Cuarteles de Carabineros,RETEN CAMIÑA,Base,RETEN,Carabineros de Chile,Carabineros de Chile,Sociedad y cultura,Infraestructura,-69.42720989974143,-19.31274180342506,Tarapacá,01,Tamarugal,014,Camiña,01402
Cuarteles de Carabineros,1RA. COM. CALAMA,Base,COMISARIA,Carabineros de Chile,Carabineros de Chile,Sociedad y cultura,Infraestructura,-68.9294900003296,-22.456359999709342,Antofagasta,02,El Loa,022,Calama,02201
Cuarteles de Carabineros,1RA. COM. TALTAL,Base,COMISARIA,Carabineros de Chile,Carabineros de Chile,Sociedad y cultura,Infraestructura,-70.48447499953454,-25.41055299962434,Antofagasta,02,Antofagasta,021,Taltal,02104
Cuarteles de Carabineros,RETEN QUILLAGUA,Base,RETEN,Carabineros de Chile,Carabineros de Chile,Sociedad y cultura,Infraestructura,-69.551245999831,-21.62790899956439,Antofagasta,02,Tocopilla,023,María Elena,02302
Cuarteles de Carabineros,2DA. COM. ANTOFAGASTA,Base,COMISARIA,Carabineros de Chile,Carabineros de Chile,Sociedad y cultura,Infraestructura,-70.38300899983763,-23.61598999991373,Antofagasta,02,Antofagasta,021,Antofagasta,02101
Cuarteles de Carabineros,3RA. COM. ANTOFAGASTA,Base,COMISARIA,Carabineros de Chile,Carabineros de Chile,Sociedad y cultura,Infraestructura,-70.39919800027086,-23.64815999973598,Antofagasta,02,Antofagasta,021,Antofagasta,02101
Cuarteles de Carabineros,4TA. COM. TOCOPILLA,Base,COMISARIA,Carabineros de Chile,Carabineros de Chile,Sociedad y cultura,Infraestructura,-70.20041088702031,-22.092970986377484,Antofagasta,02,Tocopilla,023,Tocopilla,02301
Cuarteles de Carabineros,RETEN EL LACO,Base,RETEN,Carabineros de Chile,Carabineros de Chile,Sociedad y cultura,Infraestructura,-67.44144431414014,-23.825255338423503,Antofagasta,02,El Loa,022,San Pedro de Atacama,02203
Cuarteles de Carabineros,PREFECTURA DE CARABS. ANTOFAGASTA,Base,PREFECTURA,Carabineros de Chile,Carabineros de Chile,Sociedad y cultura,Infraestructura,-70.3988999995669,-23.648101000159464,Antofagasta,02,Antofagasta,021,Antofagasta,02101
Cuarteles de Carabineros,PREFECTURA DE CARABS. EL LOA,Base,PREFECTURA,Carabineros de Chile,Carabineros de Chile,Sociedad y cultura,Infraestructura,-68.92682000024988,-22.46082999988428,Antofagasta,02,El Loa,022,Calama,02201
Cuarteles de Carabineros,TENENCIA OLLAGÜE (F),Base,TENENCIA,Carabineros de Chile,Carabineros de Chile,Sociedad y cultura,Infraestructura,-68.2518529893874,-21.223569345138465,Antofagasta,02,El Loa,022,Ollagüe,02202
Cuarteles de Carabineros,RETEN ALEMANIA (F),Base,RETEN,Carabineros de Chile,Carabineros de Chile,Sociedad y cultura,Infraestructura,-69.97445287099734,-25.407592029778332,Antofagasta,02,Antofagasta,021,Taltal,02104
Cuarteles de Carabineros,RETEN ASCOTÁN (F),Base,RETEN,Carabineros de Chile,Carabineros de Chile,Sociedad y cultura,Infraestructura,-68.2754434841213,-21.725129219863554,Antofagasta,02,El Loa,022,Ollagüe,02202
Cuarteles de Carabineros,RETEN HORNITOS,Base,RETEN,Carabineros de Chile,Carabineros de Chile,Sociedad y cultura,Infraestructura,-70.29341535655855,-22.91940634055369,Antofagasta,02,Antofagasta,021,Mejillones,02102
Cuarteles de Carabineros,RETEN INACALIRI (F),Base,RETEN,Carabineros de Chile,Carabineros de Chile,Sociedad y cultura,Infraestructura,-68.06666895517914,-22.028065765436526,Antofagasta,02,El Loa,022,Calama,02201
Cuarteles de Carabineros,RETEN JUAN LOPEZ,Base,RETEN,Carabineros de Chile,Carabineros de Chile,Sociedad y cultura,Infraestructura,-70.53507845082537,-23.510839265225684,Antofagasta,02,Antofagasta,021,Antofagasta,02101
Cuarteles de Carabineros,RETEN PLAYA BLANCA,Base,RETEN,Carabineros de Chile,Carabineros de Chile,Sociedad y cultura,Infraestructura,-70.4136229996883,-23.681266000012787,Antofagasta,02,Antofagasta,021,Antofagasta,02101
Cuarteles de Carabineros,RETEN SIERRA GORDA,Base,RETEN,Carabineros de Chile,Carabineros de Chile,Sociedad y cultura,Infraestructura,-69.3209737169522,-22.8911592254188,Antofagasta,02,Antofagasta,021,Sierra Gorda,02103
Cuarteles de Carabineros,RETEN SOCOMPA (F),Base,RETEN,Carabineros de Chile,Carabineros de Chile,Sociedad y cultura,Infraestructura,-68.29061666880575,-24.450410019705025,Antofagasta,02,Antofagasta,021,Antofagasta,02101
Cuarteles de Carabineros,RETEN TOCONAO (F),Base,RETEN,Carabineros de Chile,Carabineros de Chile,Sociedad y cultura,Infraestructura,-68.00555579915081,-23.186022730436324,Antofagasta,02,El Loa,022,San Pedro de Atacama,02203
Cuarteles de Carabineros,RETEN TOCONCE (F),Base,RETEN,Carabineros de Chile,Carabineros de Chile,Sociedad y cultura,Infraestructura,-68.16620940095598,-22.264487197040765,Antofagasta,02,El Loa,022,Calama,02201
Cuarteles de Carabineros,RETEN TOCORPURI (F),Base,RETEN,Carabineros de Chile,Carabineros de Chile,Sociedad y cultura,Infraestructura,-68.05837300011531,-22.4974509997471,Antofagasta,02,El Loa,022,San Pedro de Atacama,02203
Cuarteles de Carabineros,SUBCOM. ANTOFAGASTA NORTE,Base,SUBCOMISARIA,Carabineros de Chile,Carabineros de Chile,Sociedad y cultura,Infraestructura,-70.3806199996022,-23.58179999976081,Antofagasta,02,Antofagasta,021,Antofagasta,02101
Cuarteles de Carabineros,SUBCOM. I.A.T. ANTOFAGASTA,Base,SUBCOMISARIA,Carabineros de Chile,Carabineros de Chile,Sociedad y cultura,Infraestructura,-70.4026719999931,-23.51100400012696,Antofagasta,02,Antofagasta,021,Antofagasta,02101
Cuarteles de Carabineros,SUBCOM. SAN PEDRO ATACAMA (F),Base,SUBCOMISARIA,Carabineros de Chile,Carabineros de Chile,Sociedad y cultura,Infraestructura,-68.20050595116092,-22.91061127002987,Antofagasta,02,El Loa,022,San Pedro de Atacama,02203
Cuarteles de Carabineros,TENENCIA M. CARRETERA BAQUEDANO ANTOFAGASTA,Base,TENENCIA,Carabineros de Chile,Carabineros de Chile,Sociedad y cultura,Infraestructura,-69.83920109066787,-23.33170420840225,Antofagasta,02,Antofagasta,021,Sierra Gorda,02103
Cuarteles de Carabineros,TENENCIA MARIA ELENA (M.C),Base,TENENCIA,Carabineros de Chile,Carabineros de Chile,Sociedad y cultura,Infraestructura,-69.65795999971401,-22.344437000031803,Antofagasta,02,Tocopilla,023,María Elena,02302
Cuarteles de Carabineros,TENENCIA MEJILLONES,Base,TENENCIA,Carabineros de Chile,Carabineros de Chile,Sociedad y cultura,Infraestructura,-70.44533899966382,-23.101211999740674,Antofagasta,02,Antofagasta,021,Mejillones,02102
Cuarteles de Carabineros,ZONA DE CARABS. ANTOFAGASTA,Base,ZONA,Carabineros de Chile,Carabineros de Chile,Sociedad y cultura,Infraestructura,-70.39889399987402,-23.648107999934226,Antofagasta,02,Antofagasta,021,Antofagasta,02101
Cuarteles de Carabineros,TENENCIA FREIRINA,Base,TENENCIA,Carabineros de Chile,Carabineros de Chile,Sociedad y cultura,Infraestructura,-71.07873300035065,-28.50856200015111,Atacama,03,Huasco,033,Freirina,03303
Cuarteles de Carabineros,SUBCOM. DIEGO DE ALMAGRO,Base,SUBCOMISARIA,Carabineros de Chile,Carabineros de Chile,Sociedad y cultura,Infraestructura,-70.04906000029315,-26.38878000028294,Atacama,03,Chañaral,032,Diego de Almagro,03202
Cuarteles de Carabineros,TENENCIA CARRETERA ATACAMA NORTE,Base,TENENCIA CARRETERAS,Carabineros de Chile,Carabineros de Chile,Sociedad y cultura,Infraestructura,-70.36443577810019,-27.342403087049114,Atacama,03,Copiapó,031,Copiapó,03101
Cuarteles de Carabineros,1RA. COM. CHANARAL,Base,COMISARIA,Carabineros de Chile,Carabineros de Chile,Sociedad y cultura,Infraestructura,-70.62160700730527,-26.34741197510423,Atacama,03,Chañaral,032,Chañaral,03201
Cuarteles de Carabineros,2DA. COM. COPIAPÓ,Base,COMISARIA,Carabineros de Chile,Carabineros de Chile,Sociedad y cultura,Infraestructura,-70.33145700029941,-27.367709999966344,Atacama,03,Copiapó,031,Copiapó,03101
Cuarteles de Carabineros,3RA. COM. VALLENAR,Base,COMISARIA,Carabineros de Chile,Carabineros de Chile,Sociedad y cultura,Infraestructura,-70.75833199973226,-28.578057999907024,Atacama,03,Huasco,033,Vallenar,03301
Cuarteles de Carabineros,4TA. COM. EL SALVADOR,Base,COMISARIA,Carabineros de Chile,Carabineros de Chile,Sociedad y cultura,Infraestructura,-69.62591905270352,-26.248946467969436,Atacama,03,Chañaral,032,Diego de Almagro,03202
Cuarteles de Carabineros,ZONA DE CARABS. ATACAMA,Base,ZONA,Carabineros de Chile,Carabineros de Chile,Sociedad y cultura,Infraestructura,-70.32522600005782,-27.375020000348684,Atacama,03,Copiapó,031,Copiapó,03101
Cuarteles de Carabineros,PREFECTURA DE CARABS. ATACAMA,Base,PREFECTURA,Carabineros de Chile,Carabineros de Chile,Sociedad y cultura,Infraestructura,-70.33136800016626,-27.36779799995076,Atacama,03,Copiapó,031,Copiapó,03101
Cuarteles de Carabineros,RETEN CARABINERO ALFREDO  ROZAS BUGUENO,Base,RETEN,Carabineros de Chile,Carabineros de Chile,Sociedad y cultura,Infraestructura,-70.75027900038646,-28.576392999811954,Atacama,03,Huasco,033,Vallenar,03301
Cuarteles de Carabineros,TENENCIA CARRETERA ATACAMA SUR,Base,TENENCIA CARRETERAS,Carabineros de Chile,Carabineros de Chile,Sociedad y cultura,Infraestructura,-70.78524419433334,-28.573189369319902,Atacama,03,Huasco,033,Vallenar,03301
Cuarteles de Carabineros,RETEN DOMEYKO,Base,RETEN,Carabineros de Chile,Carabineros de Chile,Sociedad y cultura,Infraestructura,-70.89562166465298,-28.955199649091185,Atacama,03,Huasco,033,Vallenar,03301
Cuarteles de Carabineros,RETEN EL SALADO,Base,RETEN,Carabineros de Chile,Carabineros de Chile,Sociedad y cultura,Infraestructura,-70.31710615102597,-26.42200103112736,Atacama,03,Chañaral,032,Chañaral,03201
Cuarteles de Carabineros,RETEN EL TRANSITO,Base,RETEN,Carabineros de Chile,Carabineros de Chile,Sociedad y cultura,Infraestructura,-70.28006999553834,-28.87675663623512,Atacama,03,Huasco,033,Alto del Carmen,03302
Cuarteles de Carabineros,RETEN CONAY (F),Base,RETEN,Carabineros de Chile,Carabineros de Chile,Sociedad y cultura,Infraestructura,-70.15399264747319,-28.973522098826315,Atacama,03,Huasco,033,Alto del Carmen,03302
Cuarteles de Carabineros,RETEN LAGUNA VERDE MARICUNGA (F),Base,RETEN,Carabineros de Chile,Carabineros de Chile,Sociedad y cultura,Infraestructura,-68.47006754468772,-26.89359087964171,Atacama,03,Copiapó,031,Copiapó,03101
Cuarteles de Carabineros,RETEN PAIPOTE,Base,RETEN,Carabineros de Chile,Carabineros de Chile,Sociedad y cultura,Infraestructura,-70.27150900008223,-27.41348299995245,Atacama,03,Copiapó,031,Copiapó,03101
Cuarteles de Carabineros,RETEN PEDRO LEON GALLO,Base,RETEN,Carabineros de Chile,Carabineros de Chile,Sociedad y cultura,Infraestructura,-70.312203000176,-27.36849799971899,Atacama,03,Copiapó,031,Copiapó,03101
Cuarteles de Carabineros,RETEN SACRAMENTO (F),Base,RETEN,Carabineros de Chile,Carabineros de Chile,Sociedad y cultura,Infraestructura,-70.10790219011936,-27.830625156976506,Atacama,03,Copiapó,031,Tierra Amarilla,03103
Cuarteles de Carabineros,RETEN SAN FELIX (F),Base,RETEN,Carabineros de Chile,Carabineros de Chile,Sociedad y cultura,Infraestructura,-70.46091785989677,-28.934336903941784,Atacama,03,Huasco,033,Alto del Carmen,03302
Cuarteles de Carabineros,RETEN TIERRA AMARILLA,Base,RETEN,Carabineros de Chile,Carabineros de Chile,Sociedad y cultura,Infraestructura,-70.2663989998794,-27.46995400029542,Atacama,03,Copiapó,031,Tierra Amarilla,03103
Cuarteles de Carabineros,SUBCOM. CALDERA (M),Base,SUBCOMISARIA,Carabineros de Chile,Carabineros de Chile,Sociedad y cultura,Infraestructura,-70.82041199963543,-27.069608999561282,Atacama,03,Copiapó,031,Caldera,03102
Cuarteles de Carabineros,SUBCOM. HUASCO (M),Base,SUBCOMISARIA,Carabineros de Chile,Carabineros de Chile,Sociedad y cultura,Infraestructura,-71.22496642947921,-28.462709459187465,Atacama,03,Huasco,033,Huasco,03304
Cuarteles de Carabineros,SUBCOM. I.A.T. COPIAPÓ,Base,SUBCOMISARIA,Carabineros de Chile,Carabineros de Chile,Sociedad y cultura,Infraestructura,-70.31155700005377,-27.39066399983779,Atacama,03,Copiapó,031,Copiapó,03101
Cuarteles de Carabineros,RETEN INCA DE ORO,Base,RETEN,Carabineros de Chile,Carabineros de Chile,Sociedad y cultura,Infraestructura,-69.9055538645079,-26.753322689845874,Atacama,03,Chañaral,032,Diego de Almagro,03202
Cuarteles de Carabineros,TENENCIA ALTO DEL CARMEN,Base,TENENCIA,Carabineros de Chile,Carabineros de Chile,Sociedad y cultura,Infraestructura,-70.48571737557886,-28.754140658135352,Atacama,03,Huasco,033,Alto del Carmen,03302
Cuarteles de Carabineros,TENENCIA CARRETERA ELQUI,Base,TENENCIA CARRETERAS,Carabineros de Chile,Carabineros de Chile,Sociedad y cultura,Infraestructura,-71.26713199948391,-29.82562700000734,Coquimbo,04,Elqui,041,La Serena,04101
Cuarteles de Carabineros,TENENCIA CARRETERA LIMARI,Base,TENENCIA CARRETERAS,Carabineros de Chile,Carabineros de Chile,Sociedad y cultura,Infraestructura,-71.49454900020594,-30.579114000407863,Coquimbo,04,Limarí,043,Ovalle,04301
Cuarteles de Carabineros,TENENCIA COQUIMBO ORIENTE,Base,TENENCIA,Carabineros de Chile,Carabineros de Chile,Sociedad y cultura,Infraestructura,-71.34126000009142,-29.988299999994776,Coquimbo,04,Elqui,041,Coquimbo,04102
Cuarteles de Carabineros,TENENCIA JUNTAS DEL TORO,Base,TENENCIA,Carabineros de Chile,Carabineros de Chile,Sociedad y cultura,Infraestructura,-70.09451063453713,-29.977061310985725,Coquimbo,04,Elqui,041,Vicuña,04106
Cuarteles de Carabineros,TENENCIA TONGOY,Base,TENENCIA,Carabineros de Chile,Carabineros de Chile,Sociedad y cultura,Infraestructura,-71.49247200020288,-30.25750099996298,Coquimbo,04,Elqui,041,Coquimbo,04102
Cuarteles de Carabineros,TENENCIA PAIHUANO,Base,TENENCIA,Carabineros de Chile,Carabineros de Chile,Sociedad y cultura,Infraestructura,-70.51650699959211,-30.029159999861808,Coquimbo,04,Elqui,041,Paiguano,04105
Cuarteles de Carabineros,TENENCIA PUNITAQUI,Base,TENENCIA,Carabineros de Chile,Carabineros de Chile,Sociedad y cultura,Infraestructura,-71.25774200013008,-30.833184999610797,Coquimbo,04,Limarí,043,Punitaqui,04304
Cuarteles de Carabineros,TENENCIA CARRETERA CHOAPA,Base,TENENCIA CARRETERAS,Carabineros de Chile,Carabineros de Chile,Sociedad y cultura,Infraestructura,-71.52217899981117,-31.703710999736725,Coquimbo,04,Choapa,042,Canela,04202
Cuarteles de Carabineros,TENENCIA LA HERRADURA,Base,TENENCIA,Carabineros de Chile,Carabineros de Chile,Sociedad y cultura,Infraestructura,-71.36050100047827,-29.986582999938797,Coquimbo,04,Elqui,041,Coquimbo,04102
Cuarteles de Carabineros,TENENCIA ANDACOLLO,Base,TENENCIA,Carabineros de Chile,Carabineros de Chile,Sociedad y cultura,Infraestructura,-71.081947999552,-30.233413999994852,Coquimbo,04,Elqui,041,Andacollo,04103
Cuarteles de Carabineros,RETEN TULAHUEN (F),Base,RETEN,Carabineros de Chile,Carabineros de Chile,Sociedad y cultura,Infraestructura,-70.76904073786463,-30.964644527941577,Coquimbo,04,Limarí,043,Monte Patria,04303
Cuarteles de Carabineros,SUBCOM. SALAMANCA,Base,SUBCOMISARIA,Carabineros de Chile,Carabineros de Chile,Sociedad y cultura,Infraestructura,-70.96516700021432,-31.779616000111208,Coquimbo,04,Choapa,042,Salamanca,04204
Cuarteles de Carabineros,1RA. COM. LA SERENA,Base,COMISARIA,Carabineros de Chile,Carabineros de Chile,Sociedad y cultura,Infraestructura,-71.2462789997749,-29.899473000441514,Coquimbo,04,Elqui,041,La Serena,04101
Cuarteles de Carabineros,2DA. COM. COQUIMBO,Base,COMISARIA,Carabineros de Chile,Carabineros de Chile,Sociedad y cultura,Infraestructura,-71.33822800023607,-29.957692999629543,Coquimbo,04,Elqui,041,Coquimbo,04102
Cuarteles de Carabineros,SUBCOM. TIERRAS BLANCAS,Base,SUBCOMISARIA,Carabineros de Chile,Carabineros de Chile,Sociedad y cultura,Infraestructura,-71.2559110002935,-29.961823000261877,Coquimbo,04,Elqui,041,Coquimbo,04102
Cuarteles de Carabineros,3RA. COM. OVALLE,Base,COMISARIA,Carabineros de Chile,Carabineros de Chile,Sociedad y cultura,Infraestructura,-71.19657999993245,-30.6042039998115,Coquimbo,04,Limarí,043,Ovalle,04301
Cuarteles de Carabineros,4TA. COM. ILLAPEL,Base,COMISARIA,Carabineros de Chile,Carabineros de Chile,Sociedad y cultura,Infraestructura,-71.16759000019213,-31.63315299984558,Coquimbo,04,Choapa,042,Illapel,04201
Cuarteles de Carabineros,5TA. COM. VICUNA,Base,COMISARIA,Carabineros de Chile,Carabineros de Chile,Sociedad y cultura,Infraestructura,-70.71001200050709,-30.03672700023486,Coquimbo,04,Elqui,041,Vicuña,04106
Cuarteles de Carabineros,6TA. COM. LAS COMPANIAS,Base,COMISARIA,Carabineros de Chile,Carabineros de Chile,Sociedad y cultura,Infraestructura,-71.23839500039902,-29.876795000323263,Coquimbo,04,Elqui,041,La Serena,04101
Cuarteles de Carabineros,ZONA DE CARABS. COQUIMBO,Base,ZONA,Carabineros de Chile,Carabineros de Chile,Sociedad y cultura,Infraestructura,-71.24699700038155,-29.899648999786404,Coquimbo,04,Elqui,041,La Serena,04101
Cuarteles de Carabineros,PREFECTURA DE CARABS. COQUIMBO,Base,PREFECTURA,Carabineros de Chile,Carabineros de Chile,Sociedad y cultura,Infraestructura,-71.24636000001904,-29.899230000215006,Coquimbo,04,Elqui,041,La Serena,04101
Cuarteles de Carabineros,RETEN CERRILLOS DE TAMAYA,Base,RETEN,Carabineros de Chile,Carabineros de Chile,Sociedad y cultura,Infraestructura,-71.40935312358944,-30.57910509886364,Coquimbo,04,Limarí,043,Ovalle,04301
Cuarteles de Carabineros,RETEN COGOTI 18 (F),Base,RETEN,Carabineros de Chile,Carabineros de Chile,Sociedad y cultura,Infraestructura,-70.95476438269853,-31.091053093880173,Coquimbo,04,Limarí,043,Combarbalá,04302
Cuarteles de Carabineros,RETEN COIRON (F),Base,RETEN,Carabineros de Chile,Carabineros de Chile,Sociedad y cultura,Infraestructura,-70.77510116526881,-31.903383103196543,Coquimbo,04,Choapa,042,Salamanca,04204
Cuarteles de Carabineros,RETEN EL MOLLE,Base,RETEN,Carabineros de Chile,Carabineros de Chile,Sociedad y cultura,Infraestructura,-70.95229947489376,-29.977833435948515,Coquimbo,04,Elqui,041,Vicuña,04106
Cuarteles de Carabineros,RETEN EL PALQUI,Base,RETEN,Carabineros de Chile,Carabineros de Chile,Sociedad y cultura,Infraestructura,-70.94337225230117,-30.768478373913368,Coquimbo,04,Limarí,043,Monte Patria,04303
Cuarteles de Carabineros,RETEN GUANAQUEROS,Base,RETEN,Carabineros de Chile,Carabineros de Chile,Sociedad y cultura,Infraestructura,-71.4297393135753,-30.196559321205417,Coquimbo,04,Elqui,041,Coquimbo,04102
Cuarteles de Carabineros,RETEN CHANARAL ALTO,Base,RETEN,Carabineros de Chile,Carabineros de Chile,Sociedad y cultura,Infraestructura,-71.01055697889237,-30.879547643668104,Coquimbo,04,Limarí,043,Monte Patria,04303
Cuarteles de Carabineros,RETEN LA CANELA,Base,RETEN,Carabineros de Chile,Carabineros de Chile,Sociedad y cultura,Infraestructura,-71.45649700036869,-31.3971610003065,Coquimbo,04,Choapa,042,Canela,04202
Cuarteles de Carabineros,SUBCOM. MONTE PATRIA,Base,SUBCOMISARIA,Carabineros de Chile,Carabineros de Chile,Sociedad y cultura,Infraestructura,-70.95868100017528,-30.696331999745606,Coquimbo,04,Limarí,043,Monte Patria,04303
Cuarteles de Carabineros,SUBCOM. LOS VILOS,Base,SUBCOMISARIA,Carabineros de Chile,Carabineros de Chile,Sociedad y cultura,Infraestructura,-71.51033599972337,-31.9144000000654,Coquimbo,04,Choapa,042,Los Vilos,04203
Cuarteles de Carabineros,RETEN HURTADO (F),Base,RETEN,Carabineros de Chile,Carabineros de Chile,Sociedad y cultura,Infraestructura,-70.66904719714186,-30.277742642988894,Coquimbo,04,Limarí,043,Río Hurtado,04305
Cuarteles de Carabineros,SUBCOM. I.A.T. LA SERENA,Base,SUBCOMISARIA,Carabineros de Chile,Carabineros de Chile,Sociedad y cultura,Infraestructura,-71.2636820001461,-29.9420929998678,Coquimbo,04,Elqui,041,La Serena,04101
Cuarteles de Carabineros,SUBCOM. COMBARBALA,Base,SUBCOMISARIA,Carabineros de Chile,Carabineros de Chile,Sociedad y cultura,Infraestructura,-71.00212000051395,-31.178436999671934,Coquimbo,04,Limarí,043,Combarbalá,04302
Cuarteles de Carabineros,RETEN PISCO ELQUI (F),Base,RETEN,Carabineros de Chile,Carabineros de Chile,Sociedad y cultura,Infraestructura,-70.49404478745062,-30.123483128729628,Coquimbo,04,Elqui,041,Paiguano,04105
Cuarteles de Carabineros,RETEN PICHIDANGUI,Base,RETEN,Carabineros de Chile,Carabineros de Chile,Sociedad y cultura,Infraestructura,-71.52636078964156,-32.141435532389615,Coquimbo,04,Choapa,042,Los Vilos,04203
Cuarteles de Carabineros,SUBCOM. LA FLORIDA,Base,SUBCOMISARIA,Carabineros de Chile,Carabineros de Chile,Sociedad y cultura,Infraestructura,-71.21828000010302,-29.915889999767977,Coquimbo,04,Elqui,041,La Serena,04101
Cuarteles de Carabineros,RETEN PENUELAS,Base,RETEN,Carabineros de Chile,Carabineros de Chile,Sociedad y cultura,Infraestructura,-71.28746200012066,-29.949079000357212,Coquimbo,04,Elqui,041,La Serena,04101
Cuarteles de Carabineros,RETEN PEDREGAL (F),Base,RETEN,Carabineros de Chile,Carabineros de Chile,Sociedad y cultura,Infraestructura,-70.70948700044244,-30.854401999581615,Coquimbo,04,Limarí,043,Monte Patria,04303
Cuarteles de Carabineros,RETEN LAS TORTOLAS (F),Base,RETEN,Carabineros de Chile,Carabineros de Chile,Sociedad y cultura,Infraestructura,-70.59979543744862,-30.74277651537285,Coquimbo,04,Limarí,043,Monte Patria,04303
Cuarteles de Carabineros,RETEN LA HIGUERA,Base,RETEN,Carabineros de Chile,Carabineros de Chile,Sociedad y cultura,Infraestructura,-71.2003407294318,-29.51062046919832,Coquimbo,04,Elqui,041,La Higuera,04104
Cuarteles de Carabineros,RETEN LAS ENCINAS,Base,RETEN,Carabineros de Chile,Carabineros de Chile,Sociedad y cultura,Infraestructura,-71.32826000010141,-29.97469999956454,Coquimbo,04,Elqui,041,Coquimbo,04102
Cuarteles de Carabineros,RETEN PICHASCA,Base,RETEN,Carabineros de Chile,Carabineros de Chile,Sociedad y cultura,Infraestructura,-70.87095295751189,-30.394745171703608,Coquimbo,04,Limarí,043,Río Hurtado,04305
Cuarteles de Carabineros,TENENCIA CATEMU,Base,TENENCIA,Carabineros de Chile,Carabineros de Chile,Sociedad y cultura,Infraestructura,-70.96205100013982,-32.778900999777136,Valparaíso,05,San Felipe de Aconcagua,057,Catemu,05702
Cuarteles de Carabineros,TENENCIA CARRETERA VALPARAISO,Base,TENENCIA CARRETERAS,Carabineros de Chile,Carabineros de Chile,Sociedad y cultura,Infraestructura,-71.56028899989924,-33.14674599992908,Valparaíso,05,Valparaíso,051,Valparaíso,05101
Cuarteles de Carabineros,TENENCIA CARRETERA PETORCA,Base,TENENCIA CARRETERAS,Carabineros de Chile,Carabineros de Chile,Sociedad y cultura,Infraestructura,-71.32454227441305,-32.435723346975195,Valparaíso,05,Petorca,054,Papudo,05403
Cuarteles de Carabineros,TENENCIA CALLE LARGA,Base,TENENCIA,Carabineros de Chile,Carabineros de Chile,Sociedad y cultura,Infraestructura,-70.62674400011049,-32.85566799997741,Valparaíso,05,Los Andes,053,Calle Larga,05302
Cuarteles de Carabineros,TENENCIA CABILDO,Base,TENENCIA,Carabineros de Chile,Carabineros de Chile,Sociedad y cultura,Infraestructura,-71.06484216276193,-32.425597842237856,Valparaíso,05,Petorca,054,Cabildo,05402
Cuarteles de Carabineros,SUBCOM. QUINTERO,Base,SUBCOMISARIA,Carabineros de Chile,Carabineros de Chile,Sociedad y cultura,Infraestructura,-71.52801300049052,-32.78748999986886,Valparaíso,05,Valparaíso,051,Quintero,05107
Cuarteles de Carabineros,SUBCOM. LOS LIBERTADORES (F),Base,SUBCOMISARIA,Carabineros de Chile,Carabineros de Chile,Sociedad y cultura,Infraestructura,-70.11834667457723,-32.84613817396734,Valparaíso,05,Los Andes,053,Los Andes,05301
Cuarteles de Carabineros,SUBCOM. LLO LLEO,Base,SUBCOMISARIA,Carabineros de Chile,Carabineros de Chile,Sociedad y cultura,Infraestructura,-71.61808254174703,-33.61077034208579,Valparaíso,05,San Antonio,056,San Antonio,05601
Cuarteles de Carabineros,SUBCOM. LLAY LLAY,Base,SUBCOMISARIA,Carabineros de Chile,Carabineros de Chile,Sociedad y cultura,Infraestructura,-70.95526900049668,-32.842367000305366,Valparaíso,05,San Felipe de Aconcagua,057,Llaillay,05703
Cuarteles de Carabineros,SUBCOM. I.A.T. VALPARAÍSO,Base,SUBCOMISARIA,Carabineros de Chile,Carabineros de Chile,Sociedad y cultura,Infraestructura,-71.60131599952548,-33.043240000190195,Valparaíso,05,Valparaíso,051,Valparaíso,05101
Cuarteles de Carabineros,TENENCIA CORDILLERA VALPO.,Base,TENENCIA,Carabineros de Chile,Carabineros de Chile,Sociedad y cultura,Infraestructura,-71.63802100026263,-33.04334399990676,Valparaíso,05,Valparaíso,051,Valparaíso,05101
Cuarteles de Carabineros,SUBCOM. GOMEZ CARRENO,Base,SUBCOMISARIA,Carabineros de Chile,Carabineros de Chile,Sociedad y cultura,Infraestructura,-71.5189149996477,-32.99941800031087,Valparaíso,05,Valparaíso,051,Viña del Mar,05109
Cuarteles de Carabineros,SUBCOM. ROCAS SANTO DOMINGO,Base,SUBCOMISARIA,Carabineros de Chile,Carabineros de Chile,Sociedad y cultura,Infraestructura,-71.61081988949151,-33.633941512108436,Valparaíso,05,San Antonio,056,Santo Domingo,05606
Cuarteles de Carabineros,TENENCIA EL BELLOTO,Base,TENENCIA,Carabineros de Chile,Carabineros de Chile,Sociedad y cultura,Infraestructura,-71.40482099983993,-33.04620199979744,Valparaíso,05,Marga Marga,058,Quilpué,05801
Cuarteles de Carabineros,TENENCIA SANTA MARIA,Base,TENENCIA,Carabineros de Chile,Carabineros de Chile,Sociedad y cultura,Infraestructura,-70.65778000049421,-32.74869000042567,Valparaíso,05,San Felipe de Aconcagua,057,Santa María,05706
Cuarteles de Carabineros,TENENCIA FORESTAL,Base,TENENCIA,Carabineros de Chile,Carabineros de Chile,Sociedad y cultura,Infraestructura,-71.54392399981386,-33.029509999953184,Valparaíso,05,Valparaíso,051,Viña del Mar,05109
Cuarteles de Carabineros,TENENCIA LA CRUZ,Base,TENENCIA,Carabineros de Chile,Carabineros de Chile,Sociedad y cultura,Infraestructura,-71.23248300025648,-32.84734400008725,Valparaíso,05,Quillota,055,La Cruz,05504
Cuarteles de Carabineros,TENENCIA NOGALES,Base,TENENCIA,Carabineros de Chile,Carabineros de Chile,Sociedad y cultura,Infraestructura,-71.19972700048324,-32.73922800032791,Valparaíso,05,Quillota,055,Nogales,05506
Cuarteles de Carabineros,TENENCIA NUEVA AURORA,Base,TENENCIA,Carabineros de Chile,Carabineros de Chile,Sociedad y cultura,Infraestructura,-71.56481499976482,-33.04741100016779,Valparaíso,05,Valparaíso,051,Viña del Mar,05109
Cuarteles de Carabineros,TENENCIA OHIGGINS,Base,TENENCIA,Carabineros de Chile,Carabineros de Chile,Sociedad y cultura,Infraestructura,-71.58663300028607,-33.061446999914665,Valparaíso,05,Valparaíso,051,Valparaíso,05101
Cuarteles de Carabineros,TENENCIA PETORCA,Base,TENENCIA,Carabineros de Chile,Carabineros de Chile,Sociedad y cultura,Infraestructura,-70.93085981108976,-32.250994752690154,Valparaíso,05,Petorca,054,Petorca,05404
Cuarteles de Carabineros,TENENCIA PUCHUNCAVI,Base,TENENCIA,Carabineros de Chile,Carabineros de Chile,Sociedad y cultura,Infraestructura,-71.40844899962534,-32.71890099961754,Valparaíso,05,Valparaíso,051,Puchuncaví,05105
Cuarteles de Carabineros,TENENCIA PUTAENDO,Base,TENENCIA,Carabineros de Chile,Carabineros de Chile,Sociedad y cultura,Infraestructura,-70.71639599960795,-32.62325299965976,Valparaíso,05,San Felipe de Aconcagua,057,Putaendo,05705
Cuarteles de Carabineros,TENENCIA RECREO,Base,TENENCIA,Carabineros de Chile,Carabineros de Chile,Sociedad y cultura,Infraestructura,-71.57900199970818,-33.030878000277795,Valparaíso,05,Valparaíso,051,Viña del Mar,05109
Cuarteles de Carabineros,TENENCIA REÑACA,Base,TENENCIA,Carabineros de Chile,Carabineros de Chile,Sociedad y cultura,Infraestructura,-71.54249799971976,-32.96962900005614,Valparaíso,05,Valparaíso,051,Viña del Mar,05109
Cuarteles de Carabineros,TENENCIA RINCONADA,Base,TENENCIA,Carabineros de Chile,Carabineros de Chile,Sociedad y cultura,Infraestructura,-70.68871199985718,-32.83281100025292,Valparaíso,05,Los Andes,053,Rinconada,05303
Cuarteles de Carabineros,TENENCIA RODELILLO,Base,TENENCIA,Carabineros de Chile,Carabineros de Chile,Sociedad y cultura,Infraestructura,-71.57681699986975,-33.05767999974953,Valparaíso,05,Valparaíso,051,Valparaíso,05101
Cuarteles de Carabineros,ZONA DE CARABS. VALPARAISO,Base,ZONA,Carabineros de Chile,Carabineros de Chile,Sociedad y cultura,Infraestructura,-71.61873299980483,-33.04881899988444,Valparaíso,05,Valparaíso,051,Valparaíso,05101
Cuarteles de Carabineros,SUBCOM. CONCON,Base,SUBCOMISARIA,Carabineros de Chile,Carabineros de Chile,Sociedad y cultura,Infraestructura,-71.51293885823532,-32.92239145688349,Valparaíso,05,Valparaíso,051,Concón,05103
Cuarteles de Carabineros,SUBCOM. EL QUISCO,Base,SUBCOMISARIA,Carabineros de Chile,Carabineros de Chile,Sociedad y cultura,Infraestructura,-71.69434609281386,-33.39778522781377,Valparaíso,05,San Antonio,056,El Quisco,05604
Cuarteles de Carabineros,RETEN ZAPALLAR,Base,RETEN,Carabineros de Chile,Carabineros de Chile,Sociedad y cultura,Infraestructura,-71.45481700033555,-32.5562730004425,Valparaíso,05,Petorca,054,Zapallar,05405
Cuarteles de Carabineros,TENENCIA OLMUE,Base,TENENCIA,Carabineros de Chile,Carabineros de Chile,Sociedad y cultura,Infraestructura,-71.18772800003322,-32.99833399977053,Valparaíso,05,Marga Marga,058,Olmué,05803
Cuarteles de Carabineros,TENENCIA SAN ESTEBAN (F),Base,TENENCIA,Carabineros de Chile,Carabineros de Chile,Sociedad y cultura,Infraestructura,-70.58033099974136,-32.79970999964219,Valparaíso,05,Los Andes,053,San Esteban,05304
Cuarteles de Carabineros,PREFECTURA DE CARABS. VALPARAISO,Base,PREFECTURA,Carabineros de Chile,Carabineros de Chile,Sociedad y cultura,Infraestructura,-71.61875000006751,-33.04884000006104,Valparaíso,05,Valparaíso,051,Valparaíso,05101
Cuarteles de Carabineros,PREFECTURA DE CARABS. SAN ANTONIO,Base,PREFECTURA,Carabineros de Chile,Carabineros de Chile,Sociedad y cultura,Infraestructura,-71.61227799981624,-33.59751000043707,Valparaíso,05,San Antonio,056,San Antonio,05601
Cuarteles de Carabineros,PREFECTURA DE CARABS. ACONCAGUA,Base,PREFECTURA,Carabineros de Chile,Carabineros de Chile,Sociedad y cultura,Infraestructura,-70.7266709997359,-32.75520200009073,Valparaíso,05,San Felipe de Aconcagua,057,San Felipe,05701
Cuarteles de Carabineros,RETEN VALLE HERMOSO,Base,RETEN,Carabineros de Chile,Carabineros de Chile,Sociedad y cultura,Infraestructura,-71.19827144469224,-32.44293853777959,Valparaíso,05,Petorca,054,La Ligua,05401
Cuarteles de Carabineros,8VA. COM. FLORIDA VALPO.,Base,COMISARIA,Carabineros de Chile,Carabineros de Chile,Sociedad y cultura,Infraestructura,-71.62181700020462,-33.05313700041416,Valparaíso,05,Valparaíso,051,Valparaíso,05101
Cuarteles de Carabineros,7MA. COM. LA CALERA,Base,COMISARIA,Carabineros de Chile,Carabineros de Chile,Sociedad y cultura,Infraestructura,-71.19047446784646,-32.78417955733399,Valparaíso,05,Quillota,055,Calera,05502
Cuarteles de Carabineros,6TA. COM. VILLA ALEMANA,Base,COMISARIA,Carabineros de Chile,Carabineros de Chile,Sociedad y cultura,Infraestructura,-71.37097999952138,-33.04333000019255,Valparaíso,05,Marga Marga,058,Villa Alemana,05804
Cuarteles de Carabineros,6TA. COM. ISLA PASCUA (F),Base,COMISARIA,Carabineros de Chile,Carabineros de Chile,Sociedad y cultura,Infraestructura,-109.43699614160809,-27.16077369199963,Valparaíso,05,Isla de Pascua,052,Isla de Pascua,05201
Cuarteles de Carabineros,5TA. COM. VINA DEL MAR,Base,COMISARIA,Carabineros de Chile,Carabineros de Chile,Sociedad y cultura,Infraestructura,-71.51739300050457,-33.02339599964761,Valparaíso,05,Valparaíso,051,Viña del Mar,05109
Cuarteles de Carabineros,5TA. COM. CASABLANCA,Base,COMISARIA,Carabineros de Chile,Carabineros de Chile,Sociedad y cultura,Infraestructura,-71.4084620002352,-33.32044100000199,Valparaíso,05,Valparaíso,051,Casablanca,05102
Cuarteles de Carabineros,4TA. COM. R.P.Y TTO.VALPARAISO,Base,COMISARIA,Carabineros de Chile,Carabineros de Chile,Sociedad y cultura,Infraestructura,-71.61821499950571,-33.04804299982816,Valparaíso,05,Valparaíso,051,Valparaíso,05101
Cuarteles de Carabineros,4TA. COM. QUILLOTA,Base,COMISARIA,Carabineros de Chile,Carabineros de Chile,Sociedad y cultura,Infraestructura,-71.24899899984308,-32.87839000037722,Valparaíso,05,Quillota,055,Quillota,05501
Cuarteles de Carabineros,3RA. COM. NORTE VALPO.,Base,COMISARIA,Carabineros de Chile,Carabineros de Chile,Sociedad y cultura,Infraestructura,-71.60128999977438,-33.04325000009612,Valparaíso,05,Valparaíso,051,Valparaíso,05101
Cuarteles de Carabineros,3RA. COM. LOS ANDES,Base,COMISARIA,Carabineros de Chile,Carabineros de Chile,Sociedad y cultura,Infraestructura,-70.60359200019528,-32.83372199995009,Valparaíso,05,Los Andes,053,Los Andes,05301
Cuarteles de Carabineros,3RA. COM. LIMACHE,Base,COMISARIA,Carabineros de Chile,Carabineros de Chile,Sociedad y cultura,Infraestructura,-71.27858899982793,-32.98617199969925,Valparaíso,05,Marga Marga,058,Limache,05802
Cuarteles de Carabineros,3RA. COM. ALGARROBO,Base,COMISARIA,Carabineros de Chile,Carabineros de Chile,Sociedad y cultura,Infraestructura,-71.66922000019805,-33.365513999970084,Valparaíso,05,San Antonio,056,Algarrobo,05602
Cuarteles de Carabineros,2DA. COM. SAN FELIPE,Base,COMISARIA,Carabineros de Chile,Carabineros de Chile,Sociedad y cultura,Infraestructura,-70.72678899980353,-32.755179999784865,Valparaíso,05,San Felipe de Aconcagua,057,San Felipe,05701
Cuarteles de Carabineros,2DA. COM. QUILPUE,Base,COMISARIA,Carabineros de Chile,Carabineros de Chile,Sociedad y cultura,Infraestructura,-71.43881800030542,-33.0553280003118,Valparaíso,05,Marga Marga,058,Quilpué,05801
Cuarteles de Carabineros,2DA. COM. CENTRAL VALPO.,Base,COMISARIA,Carabineros de Chile,Carabineros de Chile,Sociedad y cultura,Infraestructura,-71.61863000008586,-33.048308999554465,Valparaíso,05,Valparaíso,051,Valparaíso,05101
Cuarteles de Carabineros,2DA. COM. CARTAGENA,Base,COMISARIA,Carabineros de Chile,Carabineros de Chile,Sociedad y cultura,Infraestructura,-71.59792699989266,-33.54785299998475,Valparaíso,05,San Antonio,056,Cartagena,05603
Cuarteles de Carabineros,1RA. COM. VINA DEL MAR,Base,COMISARIA,Carabineros de Chile,Carabineros de Chile,Sociedad y cultura,Infraestructura,-71.5557520001161,-33.0191320001412,Valparaíso,05,Valparaíso,051,Viña del Mar,05109
Cuarteles de Carabineros,1RA. COM. SUR VALPARAISO,Base,COMISARIA,Carabineros de Chile,Carabineros de Chile,Sociedad y cultura,Infraestructura,-71.63768499975795,-33.029423000198854,Valparaíso,05,Valparaíso,051,Valparaíso,05101
Cuarteles de Carabineros,1RA. COM. SAN ANTONIO,Base,COMISARIA,Carabineros de Chile,Carabineros de Chile,Sociedad y cultura,Infraestructura,-71.6122769999337,-33.59748400001718,Valparaíso,05,San Antonio,056,San Antonio,05601
Cuarteles de Carabineros,1RA. COM. LA LIGUA,Base,COMISARIA,Carabineros de Chile,Carabineros de Chile,Sociedad y cultura,Infraestructura,-71.22940099963071,-32.45002499978426,Valparaíso,05,Petorca,054,La Ligua,05401
Cuarteles de Carabineros,SUBCOM I.A.T. SAN FELIPE,Base,TENENCIA CARRETERAS,Carabineros de Chile,Carabineros de Chile,Sociedad y cultura,Infraestructura,-70.94077299964161,-32.851729000101834,Valparaíso,05,San Felipe de Aconcagua,057,Llaillay,05703
Cuarteles de Carabineros,PREFECTURA DE CARABS. VINA DEL MAR,Base,PREFECTURA,Carabineros de Chile,Carabineros de Chile,Sociedad y cultura,Infraestructura,-71.55578899981111,-33.01920800005369,Valparaíso,05,Valparaíso,051,Viña del Mar,05109
Cuarteles de Carabineros,RETEN CABO 1º JUAN CARLOS SILVA TORO,Base,RETEN,Carabineros de Chile,Carabineros de Chile,Sociedad y cultura,Infraestructura,-71.55962600032052,-33.056546999907226,Valparaíso,05,Valparaíso,051,Valparaíso,05101
Cuarteles de Carabineros,TENENCIA CARRETERA HIJUELAS,Base,TENENCIA CARRETERAS,Carabineros de Chile,Carabineros de Chile,Sociedad y cultura,Infraestructura,-71.15497000017137,-32.801288999623,Valparaíso,05,Quillota,055,Hijuelas,05503
Cuarteles de Carabineros,RETEN CASAS DE ALICAHUE,Base,RETEN,Carabineros de Chile,Carabineros de Chile,Sociedad y cultura,Infraestructura,-70.7858536160337,-32.34904549236515,Valparaíso,05,Petorca,054,Cabildo,05402
Cuarteles de Carabineros,RETEN EL MELON,Base,RETEN,Carabineros de Chile,Carabineros de Chile,Sociedad y cultura,Infraestructura,-71.21328459578156,-32.69072857214688,Valparaíso,05,Quillota,055,Nogales,05506
Cuarteles de Carabineros,RETEN CACHAGUA,Base,RETEN,Carabineros de Chile,Carabineros de Chile,Sociedad y cultura,Infraestructura,-71.45317804389812,-32.5773160481601,Valparaíso,05,Petorca,054,Zapallar,05405
Cuarteles de Carabineros,TENENCIA EL TABO,Base,TENENCIA,Carabineros de Chile,Carabineros de Chile,Sociedad y cultura,Infraestructura,-71.66597300037606,-33.452983999635165,Valparaíso,05,San Antonio,056,El Tabo,05605
Cuarteles de Carabineros,RETEN GUARDIA VIEJA,Base,RETEN,Carabineros de Chile,Carabineros de Chile,Sociedad y cultura,Infraestructura,-70.26577656080968,-32.90292592667196,Valparaíso,05,Los Andes,053,Los Andes,05301
Cuarteles de Carabineros,RETEN GUZMANES,Base,RETEN,Carabineros de Chile,Carabineros de Chile,Sociedad y cultura,Infraestructura,-70.73370799967535,-32.58293800027615,Valparaíso,05,San Felipe de Aconcagua,057,Putaendo,05705
Cuarteles de Carabineros,RETEN HIJUELAS,Base,RETEN,Carabineros de Chile,Carabineros de Chile,Sociedad y cultura,Infraestructura,-71.14426899949412,-32.80218399975894,Valparaíso,05,Quillota,055,Hijuelas,05503
Cuarteles de Carabineros,RETEN HORCON,Base,RETEN,Carabineros de Chile,Carabineros de Chile,Sociedad y cultura,Infraestructura,-71.48618237452297,-32.716362032868744,Valparaíso,05,Valparaíso,051,Puchuncaví,05105
Cuarteles de Carabineros,RETEN LAGUNA VERDE,Base,RETEN,Carabineros de Chile,Carabineros de Chile,Sociedad y cultura,Infraestructura,-71.66789606051645,-33.10462472585057,Valparaíso,05,Valparaíso,051,Valparaíso,05101
Cuarteles de Carabineros,RETEN LAS CANAS,Base,RETEN,Carabineros de Chile,Carabineros de Chile,Sociedad y cultura,Infraestructura,-71.6071210002408,-33.059143999721584,Valparaíso,05,Valparaíso,051,Valparaíso,05101
Cuarteles de Carabineros,TENENCIA LAS CRUCES,Base,TENENCIA,Carabineros de Chile,Carabineros de Chile,Sociedad y cultura,Infraestructura,-71.61510599974481,-33.49867900012831,Valparaíso,05,San Antonio,056,El Tabo,05605
Cuarteles de Carabineros,RETEN LAS CRUZADAS,Base,RETEN,Carabineros de Chile,Carabineros de Chile,Sociedad y cultura,Infraestructura,-71.27521744872442,-32.93730943444697,Valparaíso,05,Quillota,055,Quillota,05501
Cuarteles de Carabineros,RETEN LAS VENTANAS,Base,RETEN,Carabineros de Chile,Carabineros de Chile,Sociedad y cultura,Infraestructura,-71.48615199951469,-32.74378299990014,Valparaíso,05,Valparaíso,051,Puchuncaví,05105
Cuarteles de Carabineros,RETEN ISLA CRUSOE (F),Base,RETEN,Carabineros de Chile,Carabineros de Chile,Sociedad y cultura,Infraestructura,-78.83050995650368,-33.639217906185344,Valparaíso,05,Valparaíso,051,Juan Fernández,05104
Cuarteles de Carabineros,RETEN LOS PATOS (F),Base,RETEN,Carabineros de Chile,Carabineros de Chile,Sociedad y cultura,Infraestructura,-70.5808512802135,-32.500777898716,Valparaíso,05,San Felipe de Aconcagua,057,Putaendo,05705
Cuarteles de Carabineros,RETEN CATAPILCO,Base,RETEN,Carabineros de Chile,Carabineros de Chile,Sociedad y cultura,Infraestructura,-71.27560004806715,-32.56757572903816,Valparaíso,05,Petorca,054,Zapallar,05405
Cuarteles de Carabineros,RETEN LOS MOLLES,Base,RETEN,Carabineros de Chile,Carabineros de Chile,Sociedad y cultura,Infraestructura,-71.50686926845864,-32.231690569305265,Valparaíso,05,Petorca,054,La Ligua,05401
Cuarteles de Carabineros,RETEN CHINCOLCO,Base,RETEN,Carabineros de Chile,Carabineros de Chile,Sociedad y cultura,Infraestructura,-70.84299705370445,-32.22381788612188,Valparaíso,05,Petorca,054,Petorca,05404
Cuarteles de Carabineros,RETEN CUNCUMEN,Base,RETEN,Carabineros de Chile,Carabineros de Chile,Sociedad y cultura,Infraestructura,-71.4217979997526,-33.73602600038517,Valparaíso,05,San Antonio,056,San Antonio,05601
Cuarteles de Carabineros,RETEN QUINTAY,Base,RETEN,Carabineros de Chile,Carabineros de Chile,Sociedad y cultura,Infraestructura,-71.6969220001138,-33.196397000032924,Valparaíso,05,Valparaíso,051,Casablanca,05102
Cuarteles de Carabineros,RETEN QUEBRADA HERRERA,Base,RETEN,Carabineros de Chile,Carabineros de Chile,Sociedad y cultura,Infraestructura,-70.74842684749316,-32.69172248842349,Valparaíso,05,San Felipe de Aconcagua,057,Putaendo,05705
Cuarteles de Carabineros,RETEN CURIMON,Base,RETEN,Carabineros de Chile,Carabineros de Chile,Sociedad y cultura,Infraestructura,-70.68802899991593,-32.78412500003793,Valparaíso,05,San Felipe de Aconcagua,057,San Felipe,05701
Cuarteles de Carabineros,RETEN PAPUDO,Base,RETEN,Carabineros de Chile,Carabineros de Chile,Sociedad y cultura,Infraestructura,-71.44142300030805,-32.50656999958647,Valparaíso,05,Petorca,054,Papudo,05403
Cuarteles de Carabineros,RETEN PANQUEHUE,Base,RETEN,Carabineros de Chile,Carabineros de Chile,Sociedad y cultura,Infraestructura,-70.8338972720558,-32.76953902939258,Valparaíso,05,San Felipe de Aconcagua,057,Panquehue,05704
Cuarteles de Carabineros,RETEN PALACIO PRESIDENCIAL,Base,RETEN,Carabineros de Chile,Carabineros de Chile,Sociedad y cultura,Infraestructura,-71.56402099973374,-33.021164999850335,Valparaíso,05,Valparaíso,051,Viña del Mar,05109
Cuarteles de Carabineros,RETEN MAITENCILLO,Base,RETEN,Carabineros de Chile,Carabineros de Chile,Sociedad y cultura,Infraestructura,-71.43029830751195,-32.64604671187052,Valparaíso,05,Valparaíso,051,Puchuncaví,05105
Cuarteles de Carabineros,RETEN PLACILLA PENUELAS,Base,RETEN,Carabineros de Chile,Carabineros de Chile,Sociedad y cultura,Infraestructura,-71.57662999962345,-33.114710000423344,Valparaíso,05,Valparaíso,051,Valparaíso,05101
Cuarteles de Carabineros,SUBCOM. PENALOLEN,Base,SUBCOMISARIA,Carabineros de Chile,Carabineros de Chile,Sociedad y cultura,Infraestructura,-70.56781999984264,-33.48338600032293,Metropolitana de Santiago,13,Santiago,131,Peñalolén,13122
Cuarteles de Carabineros,TENENCIA BATUCO,Base,TENENCIA,Carabineros de Chile,Carabineros de Chile,Sociedad y cultura,Infraestructura,-70.80707699983216,-33.23870800031662,Metropolitana de Santiago,13,Chacabuco,133,Lampa,13302
Cuarteles de Carabineros,TENENCIA ALCALDE CARLOS VALDOVINOS,Base,TENENCIA,Carabineros de Chile,Carabineros de Chile,Sociedad y cultura,Infraestructura,-70.67429900008243,-33.480870000186975,Metropolitana de Santiago,13,Santiago,131,Pedro Aguirre Cerda,13121
Cuarteles de Carabineros,34A. COM. VISTA ALEGRE,Base,COMISARIA,Carabineros de Chile,Carabineros de Chile,Sociedad y cultura,Infraestructura,-70.71330700017118,-33.505688000225994,Metropolitana de Santiago,13,Santiago,131,Cerrillos,13102
Cuarteles de Carabineros,SUBCOM. VILLA MODERNA,Base,SUBCOMISARIA,Carabineros de Chile,Carabineros de Chile,Sociedad y cultura,Infraestructura,-70.67252999997805,-33.40488000009044,Metropolitana de Santiago,13,Santiago,131,Independencia,13108
Cuarteles de Carabineros,SUBCOM. SAN JOSE DE MAIPO (F),Base,SUBCOMISARIA,Carabineros de Chile,Carabineros de Chile,Sociedad y cultura,Infraestructura,-70.35317499998797,-33.63631799972282,Metropolitana de Santiago,13,Cordillera,132,San José de Maipo,13203
Cuarteles de Carabineros,SUBCOM. SAN GERONIMO,Base,SUBCOMISARIA,Carabineros de Chile,Carabineros de Chile,Sociedad y cultura,Infraestructura,-70.58906999968569,-33.62274999979928,Metropolitana de Santiago,13,Cordillera,132,Puente Alto,13201
Cuarteles de Carabineros,SUBCOM. SAN BERNARDO CENTRO,Base,SUBCOMISARIA,Carabineros de Chile,Carabineros de Chile,Sociedad y cultura,Infraestructura,-70.70132099959115,-33.59220499996822,Metropolitana de Santiago,13,Maipo,134,San Bernardo,13401
Cuarteles de Carabineros,SUBCOM. PUDAHUEL NORTE,Base,SUBCOMISARIA,Carabineros de Chile,Carabineros de Chile,Sociedad y cultura,Infraestructura,-70.75986500026957,-33.43265599995363,Metropolitana de Santiago,13,Santiago,131,Pudahuel,13124
Cuarteles de Carabineros,SUBCOM. POBLACION ALESSANDRI,Base,SUBCOMISARIA,Carabineros de Chile,Carabineros de Chile,Sociedad y cultura,Infraestructura,-70.6989690005345,-33.469970999860756,Metropolitana de Santiago,13,Santiago,131,Estación Central,13106
Cuarteles de Carabineros,TENENCIA CARRETERA CURACAVI,Base,TENENCIA CARRETERAS,Carabineros de Chile,Carabineros de Chile,Sociedad y cultura,Infraestructura,-71.18889072072207,-33.40567224897762,Metropolitana de Santiago,13,Melipilla,135,Curacaví,13503
Cuarteles de Carabineros,SUBCOM. CARRASCAL,Base,SUBCOMISARIA,Carabineros de Chile,Carabineros de Chile,Sociedad y cultura,Infraestructura,-70.69583399992813,-33.42124600021114,Metropolitana de Santiago,13,Santiago,131,Quinta Normal,13126
Cuarteles de Carabineros,SUBCOM. PARQUE BRASIL,Base,SUBCOMISARIA,Carabineros de Chile,Carabineros de Chile,Sociedad y cultura,Infraestructura,-70.614730000265,-33.51535999963141,Metropolitana de Santiago,13,Santiago,131,La Granja,13111
Cuarteles de Carabineros,SUBCOM. PAINE,Base,SUBCOMISARIA,Carabineros de Chile,Carabineros de Chile,Sociedad y cultura,Infraestructura,-70.7416479997708,-33.807869000309395,Metropolitana de Santiago,13,Maipo,134,Paine,13404
Cuarteles de Carabineros,SUBCOM. MOTORIZADA,Base,SUBCOMISARIA,Carabineros de Chile,Carabineros de Chile,Sociedad y cultura,Infraestructura,-70.66111699999726,-33.41909900004743,Metropolitana de Santiago,13,Santiago,131,Independencia,13108
Cuarteles de Carabineros,SUBCOM. MAIPU ORIENTE,Base,SUBCOMISARIA,Carabineros de Chile,Carabineros de Chile,Sociedad y cultura,Infraestructura,-70.78973499954432,-33.558223000406336,Metropolitana de Santiago,13,Santiago,131,Maipú,13119
Cuarteles de Carabineros,SUBCOM. MAIPO,Base,SUBCOMISARIA,Carabineros de Chile,Carabineros de Chile,Sociedad y cultura,Infraestructura,-70.77475199996127,-33.729495999982525,Metropolitana de Santiago,13,Maipo,134,Buin,13402
Cuarteles de Carabineros,SUBCOM. LOS QUILLAYES,Base,SUBCOMISARIA,Carabineros de Chile,Carabineros de Chile,Sociedad y cultura,Infraestructura,-70.59352399981,-33.56437599991529,Metropolitana de Santiago,13,Santiago,131,La Florida,13110
Cuarteles de Carabineros,SUBCOM. LO BESA,Base,SUBCOMISARIA,Carabineros de Chile,Carabineros de Chile,Sociedad y cultura,Infraestructura,-70.71458999995546,-33.42995000021967,Metropolitana de Santiago,13,Santiago,131,Quinta Normal,13126
Cuarteles de Carabineros,SUBCOM. CURACAVÍ,Base,SUBCOMISARIA,Carabineros de Chile,Carabineros de Chile,Sociedad y cultura,Infraestructura,-71.12008118640232,-33.40134079817768,Metropolitana de Santiago,13,Melipilla,135,Curacaví,13503
Cuarteles de Carabineros,SUBCOM. CONCHALI NORTE,Base,SUBCOMISARIA,Carabineros de Chile,Carabineros de Chile,Sociedad y cultura,Infraestructura,-70.68963100002028,-33.366991000193266,Metropolitana de Santiago,13,Santiago,131,Conchalí,13104
Cuarteles de Carabineros,SUBCOM. CERRILLOS,Base,SUBCOMISARIA,Carabineros de Chile,Carabineros de Chile,Sociedad y cultura,Infraestructura,-70.68804899954958,-33.479471999778156,Metropolitana de Santiago,13,Santiago,131,Cerrillos,13102
Cuarteles de Carabineros,TENENCIA CARRETERA LAMPA,Base,TENENCIA CARRETERAS,Carabineros de Chile,Carabineros de Chile,Sociedad y cultura,Infraestructura,-70.76078890963578,-33.23230555363453,Metropolitana de Santiago,13,Chacabuco,133,Lampa,13302
Cuarteles de Carabineros,SUBCOM. PENAFLOR,Base,SUBCOMISARIA,Carabineros de Chile,Carabineros de Chile,Sociedad y cultura,Infraestructura,-70.90167000001891,-33.60771999989701,Metropolitana de Santiago,13,Talagante,136,Peñaflor,13605
Cuarteles de Carabineros,TENENCIA CARRETERA MELIPILLA,Base,TENENCIA CARRETERAS,Carabineros de Chile,Carabineros de Chile,Sociedad y cultura,Infraestructura,-71.03294528032984,-33.69754247541783,Metropolitana de Santiago,13,Talagante,136,El Monte,13602
Cuarteles de Carabineros,TENENCIA LOS JARDINES,Base,TENENCIA,Carabineros de Chile,Carabineros de Chile,Sociedad y cultura,Infraestructura,-70.57404000002623,-33.534669999874225,Metropolitana de Santiago,13,Santiago,131,La Florida,13110
Cuarteles de Carabineros,TENENCIA CARRETERA PAINE,Base,TENENCIA CARRETERAS,Carabineros de Chile,Carabineros de Chile,Sociedad y cultura,Infraestructura,-70.73533421260429,-33.89377387968753,Metropolitana de Santiago,13,Maipo,134,Paine,13404
Cuarteles de Carabineros,SUBCOM. CALERA DE TANGO,Base,SUBCOMISARIA,Carabineros de Chile,Carabineros de Chile,Sociedad y cultura,Infraestructura,-70.75826999996833,-33.63099600037424,Metropolitana de Santiago,13,Maipo,134,Calera de Tango,13403
Cuarteles de Carabineros,47A. COM. LOS DOMINICOS,Base,COMISARIA,Carabineros de Chile,Carabineros de Chile,Sociedad y cultura,Infraestructura,-70.5377850004365,-33.40397100032113,Metropolitana de Santiago,13,Santiago,131,Las Condes,13114
Cuarteles de Carabineros,11A. COM. LO ESPEJO,Base,COMISARIA,Carabineros de Chile,Carabineros de Chile,Sociedad y cultura,Infraestructura,-70.69637599951066,-33.507278999870834,Metropolitana de Santiago,13,Santiago,131,Lo Espejo,13116
Cuarteles de Carabineros,TENENCIA VILLA ALHUE,Base,TENENCIA,Carabineros de Chile,Carabineros de Chile,Sociedad y cultura,Infraestructura,-71.10052855083218,-34.030837198315155,Metropolitana de Santiago,13,Melipilla,135,Alhué,13502
Cuarteles de Carabineros,TENENCIA TTE. MAURICIO RIVERA LOPEZ,Base,TENENCIA,Carabineros de Chile,Carabineros de Chile,Sociedad y cultura,Infraestructura,-70.61659000036484,-33.556309999750376,Metropolitana de Santiago,13,Santiago,131,La Granja,13111
Cuarteles de Carabineros,TENENCIA TILTIL,Base,TENENCIA,Carabineros de Chile,Carabineros de Chile,Sociedad y cultura,Infraestructura,-70.92179899959936,-33.0870900001873,Metropolitana de Santiago,13,Chacabuco,133,Tiltil,13303
Cuarteles de Carabineros,TENENCIA SANTA ROSA CHENA,Base,TENENCIA,Carabineros de Chile,Carabineros de Chile,Sociedad y cultura,Infraestructura,-70.79565900028203,-33.56417000009793,Metropolitana de Santiago,13,Talagante,136,Padre Hurtado,13604
Cuarteles de Carabineros,TENENCIA SANTA ADRIANA,Base,TENENCIA,Carabineros de Chile,Carabineros de Chile,Sociedad y cultura,Infraestructura,-70.67906000023603,-33.508110999870844,Metropolitana de Santiago,13,Santiago,131,Lo Espejo,13116
Cuarteles de Carabineros,TENENCIA SAN PEDRO,Base,TENENCIA,Carabineros de Chile,Carabineros de Chile,Sociedad y cultura,Infraestructura,-71.45433285551657,-33.89484507343356,Metropolitana de Santiago,13,Melipilla,135,San Pedro,13505
Cuarteles de Carabineros,TENENCIA SAN LUIS,Base,TENENCIA,Carabineros de Chile,Carabineros de Chile,Sociedad y cultura,Infraestructura,-70.57741899975386,-33.50435899990895,Metropolitana de Santiago,13,Santiago,131,Peñalolén,13122
Cuarteles de Carabineros,TENENCIA RECOLETA SUR,Base,TENENCIA,Carabineros de Chile,Carabineros de Chile,Sociedad y cultura,Infraestructura,-70.65093200051086,-33.42731999962014,Metropolitana de Santiago,13,Santiago,131,Recoleta,13127
Cuarteles de Carabineros,TENENCIA PIRQUE,Base,TENENCIA,Carabineros de Chile,Carabineros de Chile,Sociedad y cultura,Infraestructura,-70.57311999974404,-33.634359999651785,Metropolitana de Santiago,13,Cordillera,132,Pirque,13202
Cuarteles de Carabineros,TENENCIA PEDRO AGUIRRE CERDA,Base,TENENCIA,Carabineros de Chile,Carabineros de Chile,Sociedad y cultura,Infraestructura,-70.67600100010455,-33.50397800035688,Metropolitana de Santiago,13,Santiago,131,Pedro Aguirre Cerda,13121
Cuarteles de Carabineros,TENENCIA NUEVA ESPANA,Base,TENENCIA,Carabineros de Chile,Carabineros de Chile,Sociedad y cultura,Infraestructura,-70.67254000038312,-33.52834000040648,Metropolitana de Santiago,13,Santiago,131,La Cisterna,13109
Cuarteles de Carabineros,TENENCIA METRO BAQUEDANO,Base,TENENCIA,Carabineros de Chile,Carabineros de Chile,Sociedad y cultura,Infraestructura,-70.63417399946881,-33.43741099972616,Metropolitana de Santiago,13,Santiago,131,Providencia,13123
Cuarteles de Carabineros,TENENCIA MARIA PINTO,Base,TENENCIA,Carabineros de Chile,Carabineros de Chile,Sociedad y cultura,Infraestructura,-71.1189200005334,-33.51606000016735,Metropolitana de Santiago,13,Melipilla,135,María Pinto,13504
Cuarteles de Carabineros,TENENCIA MALLOCO,Base,TENENCIA,Carabineros de Chile,Carabineros de Chile,Sociedad y cultura,Infraestructura,-70.85041000036834,-33.60206000020617,Metropolitana de Santiago,13,Talagante,136,Peñaflor,13605
Cuarteles de Carabineros,SUBCOM. CABO 2º PABLO SILVA PIZARRO,Base,SUBCOMISARIA,Carabineros de Chile,Carabineros de Chile,Sociedad y cultura,Infraestructura,-70.56509999998406,-33.5117300000489,Metropolitana de Santiago,13,Santiago,131,La Florida,13110
Cuarteles de Carabineros,TENENCIA LO VELASQUEZ,Base,TENENCIA,Carabineros de Chile,Carabineros de Chile,Sociedad y cultura,Infraestructura,-70.74881999979254,-33.39828999987894,Metropolitana de Santiago,13,Santiago,131,Renca,13128
Cuarteles de Carabineros,TENENCIA LO SIERRA,Base,TENENCIA,Carabineros de Chile,Carabineros de Chile,Sociedad y cultura,Infraestructura,-70.70369400028181,-33.53220400038618,Metropolitana de Santiago,13,Santiago,131,Lo Espejo,13116
Cuarteles de Carabineros,TENENCIA LAMPA,Base,TENENCIA,Carabineros de Chile,Carabineros de Chile,Sociedad y cultura,Infraestructura,-70.87725199982098,-33.28506499962752,Metropolitana de Santiago,13,Chacabuco,133,Lampa,13302
Cuarteles de Carabineros,TENENCIA LA VICTORIA,Base,TENENCIA,Carabineros de Chile,Carabineros de Chile,Sociedad y cultura,Infraestructura,-70.67965799971431,-33.486792000341985,Metropolitana de Santiago,13,Santiago,131,Pedro Aguirre Cerda,13121
Cuarteles de Carabineros,TENENCIA JUAN ANTONIO RIOS,Base,TENENCIA,Carabineros de Chile,Carabineros de Chile,Sociedad y cultura,Infraestructura,-70.6709100002116,-33.42147000034012,Metropolitana de Santiago,13,Santiago,131,Independencia,13108
Cuarteles de Carabineros,TENENCIA JOSE SANTOS OSSA,Base,TENENCIA,Carabineros de Chile,Carabineros de Chile,Sociedad y cultura,Infraestructura,-70.63696000029465,-33.39410999987027,Metropolitana de Santiago,13,Santiago,131,Recoleta,13127
Cuarteles de Carabineros,TENENCIA ISLA DE MAIPO,Base,TENENCIA,Carabineros de Chile,Carabineros de Chile,Sociedad y cultura,Infraestructura,-70.90273000001201,-33.74984999965767,Metropolitana de Santiago,13,Talagante,136,Isla de Maipo,13603
Cuarteles de Carabineros,TENENCIA EL SALTO,Base,TENENCIA,Carabineros de Chile,Carabineros de Chile,Sociedad y cultura,Infraestructura,-70.62559999977667,-33.394329999768416,Metropolitana de Santiago,13,Santiago,131,Recoleta,13127
Cuarteles de Carabineros,TENENCIA EL MONTE,Base,TENENCIA,Carabineros de Chile,Carabineros de Chile,Sociedad y cultura,Infraestructura,-70.97904400001165,-33.67892400029287,Metropolitana de Santiago,13,Talagante,136,El Monte,13602
Cuarteles de Carabineros,TENENCIA CARRETERA PADRE HURTADO,Base,TENENCIA CARRETERAS,Carabineros de Chile,Carabineros de Chile,Sociedad y cultura,Infraestructura,-70.81536999985144,-33.56899999983337,Metropolitana de Santiago,13,Talagante,136,Padre Hurtado,13604
Cuarteles de Carabineros,37A. COM. AEROPUERTO INTERNACIONAL,Base,COMISARIA,Carabineros de Chile,Carabineros de Chile,Sociedad y cultura,Infraestructura,-70.79288700046745,-33.40452200014367,Metropolitana de Santiago,13,Santiago,131,Pudahuel,13124
Cuarteles de Carabineros,RETEN POMAIRE,Base,RETEN,Carabineros de Chile,Carabineros de Chile,Sociedad y cultura,Infraestructura,-71.1511766957203,-33.65074456007406,Metropolitana de Santiago,13,Melipilla,135,Melipilla,13501
Cuarteles de Carabineros,RETEN SAN GABRIEL (F),Base,RETEN,Carabineros de Chile,Carabineros de Chile,Sociedad y cultura,Infraestructura,-70.23935126908538,-33.78228976799526,Metropolitana de Santiago,13,Cordillera,132,San José de Maipo,13203
Cuarteles de Carabineros,35A. COM. DELITOS SEXUALES,Base,COMISARIA,Carabineros de Chile,Carabineros de Chile,Sociedad y cultura,Infraestructura,-70.62540400013157,-33.44471999989614,Metropolitana de Santiago,13,Santiago,131,Providencia,13123
Cuarteles de Carabineros,36A. COM. LA FLORIDA,Base,COMISARIA,Carabineros de Chile,Carabineros de Chile,Sociedad y cultura,Infraestructura,-70.59715300016222,-33.53966699998948,Metropolitana de Santiago,13,Santiago,131,La Florida,13110
Cuarteles de Carabineros,37A. COM. VITACURA,Base,COMISARIA,Carabineros de Chile,Carabineros de Chile,Sociedad y cultura,Infraestructura,-70.55448999993854,-33.389410000159764,Metropolitana de Santiago,13,Santiago,131,Vitacura,13132
Cuarteles de Carabineros,38A. COM. PUENTE ALTO,Base,COMISARIA,Carabineros de Chile,Carabineros de Chile,Sociedad y cultura,Infraestructura,-70.58151000046223,-33.578920000195616,Metropolitana de Santiago,13,Cordillera,132,Puente Alto,13201
Cuarteles de Carabineros,39A. COM. EL BOSQUE,Base,COMISARIA,Carabineros de Chile,Carabineros de Chile,Sociedad y cultura,Infraestructura,-70.66608299997718,-33.56568200017897,Metropolitana de Santiago,13,Santiago,131,El Bosque,13105
Cuarteles de Carabineros,3RA. COM. SANTIAGO,Base,COMISARIA,Carabineros de Chile,Carabineros de Chile,Sociedad y cultura,Infraestructura,-70.65855000027751,-33.44196000032313,Metropolitana de Santiago,13,Santiago,131,Santiago,13101
Cuarteles de Carabineros,41A. COM. LA PINTANA,Base,COMISARIA,Carabineros de Chile,Carabineros de Chile,Sociedad y cultura,Infraestructura,-70.6315279998902,-33.58296000015426,Metropolitana de Santiago,13,Santiago,131,La Pintana,13112
Cuarteles de Carabineros,43A. COM. PENALOLEN,Base,COMISARIA,Carabineros de Chile,Carabineros de Chile,Sociedad y cultura,Infraestructura,-70.54417600052346,-33.478177999821256,Metropolitana de Santiago,13,Santiago,131,Peñalolén,13122
Cuarteles de Carabineros,44A. COM. LO PRADO,Base,COMISARIA,Carabineros de Chile,Carabineros de Chile,Sociedad y cultura,Infraestructura,-70.71586099999173,-33.442814000031625,Metropolitana de Santiago,13,Santiago,131,Lo Prado,13117
Cuarteles de Carabineros,45A. COM. CERRO NAVIA,Base,COMISARIA,Carabineros de Chile,Carabineros de Chile,Sociedad y cultura,Infraestructura,-70.74282699966577,-33.422742000345636,Metropolitana de Santiago,13,Santiago,131,Cerro Navia,13103
Cuarteles de Carabineros,46A. COM. MACUL,Base,COMISARIA,Carabineros de Chile,Carabineros de Chile,Sociedad y cultura,Infraestructura,-70.60822000041013,-33.490110000284,Metropolitana de Santiago,13,Santiago,131,Macul,13118
Cuarteles de Carabineros,48A. COM. MENORES Y ASUNTOS DE LA FAMILIA,Base,COMISARIA,Carabineros de Chile,Carabineros de Chile,Sociedad y cultura,Infraestructura,-70.65739000022232,-33.450240000249366,Metropolitana de Santiago,13,Santiago,131,Santiago,13101
Cuarteles de Carabineros,49A. COM. QUILICURA,Base,COMISARIA,Carabineros de Chile,Carabineros de Chile,Sociedad y cultura,Infraestructura,-70.74738999974798,-33.365599999966115,Metropolitana de Santiago,13,Santiago,131,Quilicura,13125
Cuarteles de Carabineros,4TA. COM. SANTIAGO,Base,COMISARIA,Carabineros de Chile,Carabineros de Chile,Sociedad y cultura,Infraestructura,-70.64561000012458,-33.46533000028461,Metropolitana de Santiago,13,Santiago,131,Santiago,13101
Cuarteles de Carabineros,50A. COM. SAN JOAQUIN,Base,COMISARIA,Carabineros de Chile,Carabineros de Chile,Sociedad y cultura,Infraestructura,-70.62987999997193,-33.48448000017192,Metropolitana de Santiago,13,Santiago,131,San Joaquín,13129
Cuarteles de Carabineros,33A. COM. NUNOA,Base,COMISARIA,Carabineros de Chile,Carabineros de Chile,Sociedad y cultura,Infraestructura,-70.6138599996108,-33.47079999957559,Metropolitana de Santiago,13,Santiago,131,Ñuñoa,13120
Cuarteles de Carabineros,32A. COM. TRANSITO,Base,COMISARIA,Carabineros de Chile,Carabineros de Chile,Sociedad y cultura,Infraestructura,-70.65391999983468,-33.43654000037266,Metropolitana de Santiago,13,Santiago,131,Santiago,13101
Cuarteles de Carabineros,31A. COM. SAN RAMON,Base,COMISARIA,Carabineros de Chile,Carabineros de Chile,Sociedad y cultura,Infraestructura,-70.6448149996736,-33.54601099976742,Metropolitana de Santiago,13,Santiago,131,San Ramón,13131
Cuarteles de Carabineros,30A. COM. R.P. E INTERV. POLICIAL,Base,COMISARIA,Carabineros de Chile,Carabineros de Chile,Sociedad y cultura,Infraestructura,-70.66124999984935,-33.41905099996661,Metropolitana de Santiago,13,Santiago,131,Independencia,13108
Cuarteles de Carabineros,12A. COM. SAN MIGUEL,Base,COMISARIA,Carabineros de Chile,Carabineros de Chile,Sociedad y cultura,Infraestructura,-70.65089000015837,-33.489709999720716,Metropolitana de Santiago,13,Santiago,131,San Miguel,13130
Cuarteles de Carabineros,13A. COM. LA GRANJA,Base,COMISARIA,Carabineros de Chile,Carabineros de Chile,Sociedad y cultura,Infraestructura,-70.61346999997896,-33.53528000022611,Metropolitana de Santiago,13,Santiago,131,La Granja,13111
Cuarteles de Carabineros,14A. COM. SAN BERNARDO,Base,COMISARIA,Carabineros de Chile,Carabineros de Chile,Sociedad y cultura,Infraestructura,-70.68677899982946,-33.5943020003201,Metropolitana de Santiago,13,Maipo,134,San Bernardo,13401
Cuarteles de Carabineros,15A. COM. BUIN,Base,COMISARIA,Carabineros de Chile,Carabineros de Chile,Sociedad y cultura,Infraestructura,-70.74481999977665,-33.72817100043889,Metropolitana de Santiago,13,Maipo,134,Buin,13402
Cuarteles de Carabineros,16A. COM. LA REINA,Base,COMISARIA,Carabineros de Chile,Carabineros de Chile,Sociedad y cultura,Infraestructura,-70.54426000045945,-33.44148000012013,Metropolitana de Santiago,13,Santiago,131,La Reina,13113
Cuarteles de Carabineros,17A. COM. LAS CONDES,Base,COMISARIA,Carabineros de Chile,Carabineros de Chile,Sociedad y cultura,Infraestructura,-70.55408600043486,-33.39417399970138,Metropolitana de Santiago,13,Santiago,131,Las Condes,13114
Cuarteles de Carabineros,18A. COM. NUNOA,Base,COMISARIA,Carabineros de Chile,Carabineros de Chile,Sociedad y cultura,Infraestructura,-70.57571000048877,-33.453360000168885,Metropolitana de Santiago,13,Santiago,131,Ñuñoa,13120
Cuarteles de Carabineros,51A. COM. PEDRO AGUIRRE CERDA,Base,COMISARIA,Carabineros de Chile,Carabineros de Chile,Sociedad y cultura,Infraestructura,-70.68446900002031,-33.494166999645536,Metropolitana de Santiago,13,Santiago,131,Pedro Aguirre Cerda,13121
Cuarteles de Carabineros,19A. COM. PROVIDENCIA,Base,COMISARIA,Carabineros de Chile,Carabineros de Chile,Sociedad y cultura,Infraestructura,-70.6200900004471,-33.43243000033884,Metropolitana de Santiago,13,Santiago,131,Providencia,13123
Cuarteles de Carabineros,20A. COM. PUENTE ALTO,Base,COMISARIA,Carabineros de Chile,Carabineros de Chile,Sociedad y cultura,Infraestructura,-70.57532000051863,-33.607429999998075,Metropolitana de Santiago,13,Cordillera,132,Puente Alto,13201
Cuarteles de Carabineros,21A.COM. ESTACION CENTRAL,Base,COMISARIA,Carabineros de Chile,Carabineros de Chile,Sociedad y cultura,Infraestructura,-70.69241999973421,-33.4513099999937,Metropolitana de Santiago,13,Santiago,131,Estación Central,13106
Cuarteles de Carabineros,22A. COM. QUINTA NORMAL,Base,COMISARIA,Carabineros de Chile,Carabineros de Chile,Sociedad y cultura,Infraestructura,-70.69418999998511,-33.439809999877085,Metropolitana de Santiago,13,Santiago,131,Quinta Normal,13126
Cuarteles de Carabineros,23A. COM. TALAGANTE,Base,COMISARIA,Carabineros de Chile,Carabineros de Chile,Sociedad y cultura,Infraestructura,-70.93878700009829,-33.67065100014287,Metropolitana de Santiago,13,Talagante,136,Talagante,13601
Cuarteles de Carabineros,24A. COM. MELIPILLA,Base,COMISARIA,Carabineros de Chile,Carabineros de Chile,Sociedad y cultura,Infraestructura,-71.21538600032495,-33.68793999966267,Metropolitana de Santiago,13,Melipilla,135,Melipilla,13501
Cuarteles de Carabineros,25A. COM. MAIPU,Base,COMISARIA,Carabineros de Chile,Carabineros de Chile,Sociedad y cultura,Infraestructura,-70.75461899983478,-33.507196999630295,Metropolitana de Santiago,13,Santiago,131,Maipú,13119
Cuarteles de Carabineros,2DA. COM. SANTIAGO,Base,COMISARIA,Carabineros de Chile,Carabineros de Chile,Sociedad y cultura,Infraestructura,-70.66809999955912,-33.45455000017445,Metropolitana de Santiago,13,Santiago,131,Santiago,13101
Cuarteles de Carabineros,1RA. COM. SANTIAGO,Base,COMISARIA,Carabineros de Chile,Carabineros de Chile,Sociedad y cultura,Infraestructura,-70.64756000045845,-33.43587000040881,Metropolitana de Santiago,13,Santiago,131,Santiago,13101
Cuarteles de Carabineros,51A. COM. POLICIA MONTADA,Base,COMISARIA,Carabineros de Chile,Carabineros de Chile,Sociedad y cultura,Infraestructura,-70.7268249996149,-33.465163000331984,Metropolitana de Santiago,13,Santiago,131,Estación Central,13106
Cuarteles de Carabineros,52A. COM. RINCONADA DE MAIPU,Base,COMISARIA,Carabineros de Chile,Carabineros de Chile,Sociedad y cultura,Infraestructura,-70.7909340003482,-33.511141000015634,Metropolitana de Santiago,13,Santiago,131,Maipú,13119
Cuarteles de Carabineros,53A  COM. LO BARNECHEA,Base,COMISARIA,Carabineros de Chile,Carabineros de Chile,Sociedad y cultura,Infraestructura,-70.50798000043163,-33.35136000028522,Metropolitana de Santiago,13,Santiago,131,Lo Barnechea,13115
Cuarteles de Carabineros,RETEN CHAMPA,Base,RETEN,Carabineros de Chile,Carabineros de Chile,Sociedad y cultura,Infraestructura,-70.763587037522,-33.85498578818292,Metropolitana de Santiago,13,Maipo,134,Paine,13404
Cuarteles de Carabineros,RETEN CODIGUA,Base,RETEN,Carabineros de Chile,Carabineros de Chile,Sociedad y cultura,Infraestructura,-71.3240241305299,-33.757167898738416,Metropolitana de Santiago,13,Melipilla,135,Melipilla,13501
Cuarteles de Carabineros,RETEN EL BOSQUE,Base,RETEN,Carabineros de Chile,Carabineros de Chile,Sociedad y cultura,Infraestructura,-70.68831400018362,-33.55191100003694,Metropolitana de Santiago,13,Santiago,131,El Bosque,13105
Cuarteles de Carabineros,RETEN EL PAICO,Base,RETEN,Carabineros de Chile,Carabineros de Chile,Sociedad y cultura,Infraestructura,-71.05348100029575,-33.688836000362485,Metropolitana de Santiago,13,Talagante,136,El Monte,13602
Cuarteles de Carabineros,RETEN EL PERAL,Base,RETEN,Carabineros de Chile,Carabineros de Chile,Sociedad y cultura,Infraestructura,-70.57280999958387,-33.575199999561576,Metropolitana de Santiago,13,Cordillera,132,Puente Alto,13201
Cuarteles de Carabineros,RETEN ENEAS GONEL,Base,RETEN,Carabineros de Chile,Carabineros de Chile,Sociedad y cultura,Infraestructura,-70.65880100017655,-33.385205999962196,Metropolitana de Santiago,13,Santiago,131,Conchalí,13104
Cuarteles de Carabineros,RETEN FARELLONES,Base,RETEN,Carabineros de Chile,Carabineros de Chile,Sociedad y cultura,Infraestructura,-70.31554050041683,-33.35235442093859,Metropolitana de Santiago,13,Santiago,131,Lo Barnechea,13115
Cuarteles de Carabineros,RETEN CASA MONEDA,Base,RETEN,Carabineros de Chile,Carabineros de Chile,Sociedad y cultura,Infraestructura,-70.68549600040699,-33.444343999726684,Metropolitana de Santiago,13,Santiago,131,Estación Central,13106
Cuarteles de Carabineros,RETEN HUELQUEN,Base,RETEN,Carabineros de Chile,Carabineros de Chile,Sociedad y cultura,Infraestructura,-70.64183944755511,-33.832443239969564,Metropolitana de Santiago,13,Maipo,134,Paine,13404
Cuarteles de Carabineros,RETEN LA ISLITA,Base,RETEN,Carabineros de Chile,Carabineros de Chile,Sociedad y cultura,Infraestructura,-70.86586599949689,-33.74732399991002,Metropolitana de Santiago,13,Talagante,136,Isla de Maipo,13603
Cuarteles de Carabineros,RETEN LAS VIZCACHAS,Base,RETEN,Carabineros de Chile,Carabineros de Chile,Sociedad y cultura,Infraestructura,-70.53068999989473,-33.5992799996678,Metropolitana de Santiago,13,Cordillera,132,Puente Alto,13201
Cuarteles de Carabineros,RETEN LINDEROS,Base,RETEN,Carabineros de Chile,Carabineros de Chile,Sociedad y cultura,Infraestructura,-70.73563200032007,-33.7598200000537,Metropolitana de Santiago,13,Maipo,134,Buin,13402
Cuarteles de Carabineros,RETEN LOICA,Base,RETEN,Carabineros de Chile,Carabineros de Chile,Sociedad y cultura,Infraestructura,-71.46973416994668,-33.976332543429486,Metropolitana de Santiago,13,Melipilla,135,San Pedro,13505
Cuarteles de Carabineros,RETEN MALLARAUCO,Base,RETEN,Carabineros de Chile,Carabineros de Chile,Sociedad y cultura,Infraestructura,-70.98708710496507,-33.58478107655769,Metropolitana de Santiago,13,Melipilla,135,Melipilla,13501
Cuarteles de Carabineros,RETEN PINTUE,Base,RETEN,Carabineros de Chile,Carabineros de Chile,Sociedad y cultura,Infraestructura,-70.88485377995686,-33.877285222898216,Metropolitana de Santiago,13,Maipo,134,Paine,13404
Cuarteles de Carabineros,RETEN RUNGUE,Base,RETEN,Carabineros de Chile,Carabineros de Chile,Sociedad y cultura,Infraestructura,-70.88906980858607,-33.006295269865774,Metropolitana de Santiago,13,Chacabuco,133,Tiltil,13303
Cuarteles de Carabineros,RETEN HUERTOS FAMILIARES,Base,RETEN,Carabineros de Chile,Carabineros de Chile,Sociedad y cultura,Infraestructura,-70.7984379218388,-33.136160023056675,Metropolitana de Santiago,13,Chacabuco,133,Tiltil,13303
Cuarteles de Carabineros,RETEN VILUCO,Base,RETEN,Carabineros de Chile,Carabineros de Chile,Sociedad y cultura,Infraestructura,-70.79154057179498,-33.78242384430865,Metropolitana de Santiago,13,Maipo,134,Buin,13402
Cuarteles de Carabineros,RETEN CALEU,Base,RETEN,Carabineros de Chile,Carabineros de Chile,Sociedad y cultura,Infraestructura,-70.99345899997685,-33.00524899956173,Metropolitana de Santiago,13,Chacabuco,133,Tiltil,13303
Cuarteles de Carabineros,RETEN ALTO JAHUEL,Base,RETEN,Carabineros de Chile,Carabineros de Chile,Sociedad y cultura,Infraestructura,-70.68404361717087,-33.73200157174686,Metropolitana de Santiago,13,Maipo,134,Buin,13402
Cuarteles de Carabineros,54A. COM. HUECHURABA,Base,COMISARIA,Carabineros de Chile,Carabineros de Chile,Sociedad y cultura,Infraestructura,-70.63737000010013,-33.37511999999485,Metropolitana de Santiago,13,Santiago,131,Huechuraba,13107
Cuarteles de Carabineros,55A. COM. SUBOFICIAL CRISTIAN VERA CONTRERAS,Base,COMISARIA,Carabineros de Chile,Carabineros de Chile,Sociedad y cultura,Infraestructura,-70.75521399960145,-33.45655199990649,Metropolitana de Santiago,13,Santiago,131,Pudahuel,13124
Cuarteles de Carabineros,5TA. COM. CONCHALI,Base,COMISARIA,Carabineros de Chile,Carabineros de Chile,Sociedad y cultura,Infraestructura,-70.66016800010206,-33.390017999789016,Metropolitana de Santiago,13,Santiago,131,Conchalí,13104
Cuarteles de Carabineros,6TA. COM. RECOLETA,Base,COMISARIA,Carabineros de Chile,Carabineros de Chile,Sociedad y cultura,Infraestructura,-70.64197999967615,-33.40949000035283,Metropolitana de Santiago,13,Santiago,131,Recoleta,13127
Cuarteles de Carabineros,7MA. COM. RENCA,Base,COMISARIA,Carabineros de Chile,Carabineros de Chile,Sociedad y cultura,Infraestructura,-70.70446999974287,-33.40393000003659,Metropolitana de Santiago,13,Santiago,131,Renca,13128
Cuarteles de Carabineros,8VA. COM. COLINA,Base,COMISARIA,Carabineros de Chile,Carabineros de Chile,Sociedad y cultura,Infraestructura,-70.67589899966576,-33.20410799979626,Metropolitana de Santiago,13,Chacabuco,133,Colina,13301
Cuarteles de Carabineros,9NA. COM. INDEPENDENCIA,Base,COMISARIA,Carabineros de Chile,Carabineros de Chile,Sociedad y cultura,Infraestructura,-70.65722000053226,-33.40677000009437,Metropolitana de Santiago,13,Santiago,131,Independencia,13108
Cuarteles de Carabineros,RETEN BOLLENAR,Base,RETEN,Carabineros de Chile,Carabineros de Chile,Sociedad y cultura,Infraestructura,-71.21136624145986,-33.56896066855717,Metropolitana de Santiago,13,Melipilla,135,Melipilla,13501
Cuarteles de Carabineros,JEFATURA ZONA METROPOLITANA,Base,ZONA,Carabineros de Chile,Carabineros de Chile,Sociedad y cultura,Infraestructura,-70.65676999979944,-33.43765000004982,Metropolitana de Santiago,13,Santiago,131,Santiago,13101
Cuarteles de Carabineros,PREFECTURA DE CARABS. STGO. CORDILLERA,Base,PREFECTURA,Carabineros de Chile,Carabineros de Chile,Sociedad y cultura,Infraestructura,-70.58153999956825,-33.578640999694024,Metropolitana de Santiago,13,Cordillera,132,Puente Alto,13201
Cuarteles de Carabineros,PREFECTURA DE CARABS. STGO. COSTA,Base,PREFECTURA,Carabineros de Chile,Carabineros de Chile,Sociedad y cultura,Infraestructura,-70.70360900042199,-33.60102799982953,Metropolitana de Santiago,13,Maipo,134,San Bernardo,13401
Cuarteles de Carabineros,PREFECTURA DE CARABS. STGO. NORTE,Base,PREFECTURA,Carabineros de Chile,Carabineros de Chile,Sociedad y cultura,Infraestructura,-70.65116999970944,-33.42722699978721,Metropolitana de Santiago,13,Santiago,131,Recoleta,13127
Cuarteles de Carabineros,PREFECTURA DE CARABS. STGO. OCCIDENTE,Base,PREFECTURA,Carabineros de Chile,Carabineros de Chile,Sociedad y cultura,Infraestructura,-70.73978300006968,-33.44811899974795,Metropolitana de Santiago,13,Santiago,131,Pudahuel,13124
Cuarteles de Carabineros,PREFECTURA DE CARABS. STGO. ORIENTE,Base,PREFECTURA,Carabineros de Chile,Carabineros de Chile,Sociedad y cultura,Infraestructura,-70.57566899992558,-33.45335799979862,Metropolitana de Santiago,13,Santiago,131,Ñuñoa,13120
Cuarteles de Carabineros,PREFECTURA DE CARABS. STGO. SUR,Base,PREFECTURA,Carabineros de Chile,Carabineros de Chile,Sociedad y cultura,Infraestructura,-70.65944999982555,-33.52022999975965,Metropolitana de Santiago,13,Santiago,131,La Cisterna,13109
Cuarteles de Carabineros,PREFECTURA SERV. CARRETERAS R.P. Y TTO.,Base,PREFECTURA,Carabineros de Chile,Carabineros de Chile,Sociedad y cultura,Infraestructura,-70.66132999982555,-33.41900999996481,Metropolitana de Santiago,13,Santiago,131,Independencia,13108
Cuarteles de Carabineros,PREFECTURA DE CARABS. STGO. CENTRAL,Base,PREFECTURA,Carabineros de Chile,Carabineros de Chile,Sociedad y cultura,Infraestructura,-70.65676999979944,-33.43765000004982,Metropolitana de Santiago,13,Santiago,131,Santiago,13101
Cuarteles de Carabineros,RETEN EL CASTILLO,Base,RETEN,Carabineros de Chile,Carabineros de Chile,Sociedad y cultura,Infraestructura,-70.61068399961427,-33.59475000028388,Metropolitana de Santiago,13,Santiago,131,La Pintana,13112
Cuarteles de Carabineros,26A. COM. PUDAHUEL,Base,COMISARIA,Carabineros de Chile,Carabineros de Chile,Sociedad y cultura,Infraestructura,-70.73967599979413,-33.448449000419714,Metropolitana de Santiago,13,Santiago,131,Pudahuel,13124
Cuarteles de Carabineros,10A. COM. LA CISTERNA,Base,COMISARIA,Carabineros de Chile,Carabineros de Chile,Sociedad y cultura,Infraestructura,-70.66545399968071,-33.54099700030385,Metropolitana de Santiago,13,Santiago,131,La Cisterna,13109
Cuarteles de Carabineros,SUBCOM. I.A.T. CACHAPOAL,Base,SUBCOMISARIA,Carabineros de Chile,Carabineros de Chile,Sociedad y cultura,Infraestructura,-70.75914441633577,-34.19966633516939,Libertador General Bernardo O'Higgins,06,Cachapoal,061,Olivar,06111
Cuarteles de Carabineros,RETEN PUENTE NEGRO (F),Base,RETEN,Carabineros de Chile,Carabineros de Chile,Sociedad y cultura,Infraestructura,-70.87430176442098,-34.68461804057257,Libertador General Bernardo O'Higgins,06,Colchagua,063,San Fernando,06301
Cuarteles de Carabineros,RETEN PUNTILLA DE CODEGUA,Base,RETEN,Carabineros de Chile,Carabineros de Chile,Sociedad y cultura,Infraestructura,-70.94761073480282,-34.777772879318306,Libertador General Bernardo O'Higgins,06,Colchagua,063,Chimbarongo,06303
Cuarteles de Carabineros,RETEN RAPEL DE NAVIDAD,Base,RETEN,Carabineros de Chile,Carabineros de Chile,Sociedad y cultura,Infraestructura,-71.73639068484019,-33.941382445244386,Libertador General Bernardo O'Higgins,06,Cardenal Caro,062,Navidad,06205
Cuarteles de Carabineros,RETEN ROMA,Base,RETEN,Carabineros de Chile,Carabineros de Chile,Sociedad y cultura,Infraestructura,-70.91044719016644,-34.581855267324684,Libertador General Bernardo O'Higgins,06,Colchagua,063,San Fernando,06301
Cuarteles de Carabineros,RETEN VEGAS DEL FLACO,Base,RETEN,Carabineros de Chile,Carabineros de Chile,Sociedad y cultura,Infraestructura,-70.44029243540105,-34.954831673924005,Libertador General Bernardo O'Higgins,06,Colchagua,063,San Fernando,06301
Cuarteles de Carabineros,RETEN ZUNIGA,Base,RETEN,Carabineros de Chile,Carabineros de Chile,Sociedad y cultura,Infraestructura,-71.09791413866893,-34.36284861712873,Libertador General Bernardo O'Higgins,06,Cachapoal,061,San Vicente,06117
Cuarteles de Carabineros,SUBCOM. CHIMBARONGO,Base,SUBCOMISARIA,Carabineros de Chile,Carabineros de Chile,Sociedad y cultura,Infraestructura,-71.04067476888905,-34.70542006904235,Libertador General Bernardo O'Higgins,06,Colchagua,063,Chimbarongo,06303
Cuarteles de Carabineros,SUBCOM. DONIHUE,Base,SUBCOMISARIA,Carabineros de Chile,Carabineros de Chile,Sociedad y cultura,Infraestructura,-70.9719497127104,-34.221891278743236,Libertador General Bernardo O'Higgins,06,Cachapoal,061,Doñihue,06105
Cuarteles de Carabineros,SUBCOM. FRANCISCO DE MOSTAZAL,Base,SUBCOMISARIA,Carabineros de Chile,Carabineros de Chile,Sociedad y cultura,Infraestructura,-70.70790643425848,-33.98375197203396,Libertador General Bernardo O'Higgins,06,Cachapoal,061,Mostazal,06110
Cuarteles de Carabineros,SUBCOM. LAS CABRAS,Base,SUBCOMISARIA,Carabineros de Chile,Carabineros de Chile,Sociedad y cultura,Infraestructura,-71.31272150982775,-34.29365364382524,Libertador General Bernardo O'Higgins,06,Cachapoal,061,Las Cabras,06107
Cuarteles de Carabineros,SUBCOM. MACHALI,Base,SUBCOMISARIA,Carabineros de Chile,Carabineros de Chile,Sociedad y cultura,Infraestructura,-70.6514950004305,-34.17790099975777,Libertador General Bernardo O'Higgins,06,Cachapoal,061,Machalí,06108
Cuarteles de Carabineros,SUBCOM. REQUINOA,Base,SUBCOMISARIA,Carabineros de Chile,Carabineros de Chile,Sociedad y cultura,Infraestructura,-70.81934499994266,-34.286734999893795,Libertador General Bernardo O'Higgins,06,Cachapoal,061,Requínoa,06116
Cuarteles de Carabineros,TENENCIA CARRETERA COLCHAGUA,Base,TENENCIA CARRETERAS,Carabineros de Chile,Carabineros de Chile,Sociedad y cultura,Infraestructura,-70.99065114164978,-34.63150482690882,Libertador General Bernardo O'Higgins,06,Colchagua,063,Chimbarongo,06303
Cuarteles de Carabineros,TENENCIA CHEPICA,Base,TENENCIA,Carabineros de Chile,Carabineros de Chile,Sociedad y cultura,Infraestructura,-71.27298661567484,-34.72851853521578,Libertador General Bernardo O'Higgins,06,Colchagua,063,Chépica,06302
Cuarteles de Carabineros,TENENCIA CODEGUA,Base,TENENCIA,Carabineros de Chile,Carabineros de Chile,Sociedad y cultura,Infraestructura,-70.66821390365952,-34.03913382982504,Libertador General Bernardo O'Higgins,06,Cachapoal,061,Codegua,06102
Cuarteles de Carabineros,TENENCIA COINCO,Base,TENENCIA,Carabineros de Chile,Carabineros de Chile,Sociedad y cultura,Infraestructura,-70.94989670571387,-34.267648356751494,Libertador General Bernardo O'Higgins,06,Cachapoal,061,Coinco,06103
Cuarteles de Carabineros,TENENCIA COLTAUCO,Base,TENENCIA,Carabineros de Chile,Carabineros de Chile,Sociedad y cultura,Infraestructura,-71.0844611646605,-34.287956536184566,Libertador General Bernardo O'Higgins,06,Cachapoal,061,Coltauco,06104
Cuarteles de Carabineros,TENENCIA COYA,Base,TENENCIA,Carabineros de Chile,Carabineros de Chile,Sociedad y cultura,Infraestructura,-70.52583233365654,-34.20558146787538,Libertador General Bernardo O'Higgins,06,Cachapoal,061,Machalí,06108
Cuarteles de Carabineros,SUBCOM. DIEGO PORTALES,Base,SUBCOMISARIA,Carabineros de Chile,Carabineros de Chile,Sociedad y cultura,Infraestructura,-70.7147689995298,-34.1593619998793,Libertador General Bernardo O'Higgins,06,Cachapoal,061,Rancagua,06101
Cuarteles de Carabineros,TENENCIA LITUECHE,Base,TENENCIA,Carabineros de Chile,Carabineros de Chile,Sociedad y cultura,Infraestructura,-71.72683294560827,-34.116984736229114,Libertador General Bernardo O'Higgins,06,Cardenal Caro,062,Litueche,06203
Cuarteles de Carabineros,TENENCIA MARCHIGUE,Base,TENENCIA,Carabineros de Chile,Carabineros de Chile,Sociedad y cultura,Infraestructura,-71.61881749851845,-34.39852086096152,Libertador General Bernardo O'Higgins,06,Cardenal Caro,062,Marchihue,06204
Cuarteles de Carabineros,TENENCIA NANCAGUA,Base,TENENCIA,Carabineros de Chile,Carabineros de Chile,Sociedad y cultura,Infraestructura,-71.20637317228515,-34.64991811288454,Libertador General Bernardo O'Higgins,06,Colchagua,063,Nancagua,06305
Cuarteles de Carabineros,TENENCIA NAVIDAD,Base,TENENCIA,Carabineros de Chile,Carabineros de Chile,Sociedad y cultura,Infraestructura,-71.83019690080219,-33.954526969661636,Libertador General Bernardo O'Higgins,06,Cardenal Caro,062,Navidad,06205
Cuarteles de Carabineros,TENENCIA PELEQUEN,Base,TENENCIA,Carabineros de Chile,Carabineros de Chile,Sociedad y cultura,Infraestructura,-70.89666499997998,-34.464167999632714,Libertador General Bernardo O'Higgins,06,Cachapoal,061,Malloa,06109
Cuarteles de Carabineros,TENENCIA PERALILLO,Base,TENENCIA,Carabineros de Chile,Carabineros de Chile,Sociedad y cultura,Infraestructura,-71.47661808353028,-34.47840364010407,Libertador General Bernardo O'Higgins,06,Colchagua,063,Peralillo,06307
Cuarteles de Carabineros,TENENCIA PICHIDEGUA,Base,TENENCIA,Carabineros de Chile,Carabineros de Chile,Sociedad y cultura,Infraestructura,-71.27899671105591,-34.36105559168093,Libertador General Bernardo O'Higgins,06,Cachapoal,061,Pichidegua,06113
Cuarteles de Carabineros,TENENCIA QUINTA TILCOCO,Base,TENENCIA,Carabineros de Chile,Carabineros de Chile,Sociedad y cultura,Infraestructura,-70.9645138991206,-34.354342649090825,Libertador General Bernardo O'Higgins,06,Cachapoal,061,Quinta de Tilcoco,06114
Cuarteles de Carabineros,TENENCIA ROSARIO,Base,TENENCIA,Carabineros de Chile,Carabineros de Chile,Sociedad y cultura,Infraestructura,-70.83673977800063,-34.34481130839289,Libertador General Bernardo O'Higgins,06,Cachapoal,061,Rengo,06115
Cuarteles de Carabineros,ZONA DE CARABS. LIB. BDO. O'HIGGINS,Base,ZONA,Carabineros de Chile,Carabineros de Chile,Sociedad y cultura,Infraestructura,-70.74432999978565,-34.16886999955466,Libertador General Bernardo O'Higgins,06,Cachapoal,061,Rancagua,06101
Cuarteles de Carabineros,RETEN PUENTE BADEN,Base,RETEN,Carabineros de Chile,Carabineros de Chile,Sociedad y cultura,Infraestructura,-70.97995029992073,-34.47748616774815,Libertador General Bernardo O'Higgins,06,Cachapoal,061,San Vicente,06117
Cuarteles de Carabineros,RETEN POPETA,Base,RETEN,Carabineros de Chile,Carabineros de Chile,Sociedad y cultura,Infraestructura,-70.78156600977756,-34.441819632318214,Libertador General Bernardo O'Higgins,06,Cachapoal,061,Rengo,06115
Cuarteles de Carabineros,RETEN PUMANQUE,Base,RETEN,Carabineros de Chile,Carabineros de Chile,Sociedad y cultura,Infraestructura,-71.65297063121938,-34.59946260779403,Libertador General Bernardo O'Higgins,06,Colchagua,063,Pumanque,06309
Cuarteles de Carabineros,RETEN PLACILLA COLCHAGUA,Base,RETEN,Carabineros de Chile,Carabineros de Chile,Sociedad y cultura,Infraestructura,-71.11981945079712,-34.635905596907165,Libertador General Bernardo O'Higgins,06,Colchagua,063,Placilla,06308
Cuarteles de Carabineros,RETEN POBLACION,Base,RETEN,Carabineros de Chile,Carabineros de Chile,Sociedad y cultura,Infraestructura,-71.5485910861999,-34.45237157812137,Libertador General Bernardo O'Higgins,06,Colchagua,063,Peralillo,06307
Cuarteles de Carabineros,RETEN ALMAHUE VIEJO,Base,RETEN,Carabineros de Chile,Carabineros de Chile,Sociedad y cultura,Infraestructura,-71.23669112945315,-34.41265116001157,Libertador General Bernardo O'Higgins,06,Cachapoal,061,Pichidegua,06113
Cuarteles de Carabineros,RETEN AGUA BUENA,Base,RETEN,Carabineros de Chile,Carabineros de Chile,Sociedad y cultura,Infraestructura,-70.85270603141004,-34.65032909068095,Libertador General Bernardo O'Higgins,06,Colchagua,063,San Fernando,06301
Cuarteles de Carabineros,PREFECTURA DE CARABS. COLCHAGUA,Base,PREFECTURA,Carabineros de Chile,Carabineros de Chile,Sociedad y cultura,Infraestructura,-70.98895100049576,-34.586530000363325,Libertador General Bernardo O'Higgins,06,Colchagua,063,San Fernando,06301
Cuarteles de Carabineros,PREFECTURA DE CARABS. CACHAPOAL,Base,PREFECTURA,Carabineros de Chile,Carabineros de Chile,Sociedad y cultura,Infraestructura,-70.74528000008964,-34.17092999954825,Libertador General Bernardo O'Higgins,06,Cachapoal,061,Rancagua,06101
Cuarteles de Carabineros,6TA. COM. SAN VICENTE,Base,COMISARIA,Carabineros de Chile,Carabineros de Chile,Sociedad y cultura,Infraestructura,-71.0809499997351,-34.43859700039416,Libertador General Bernardo O'Higgins,06,Cachapoal,061,San Vicente,06117
Cuarteles de Carabineros,RETEN CENTRAL RAPEL,Base,RETEN,Carabineros de Chile,Carabineros de Chile,Sociedad y cultura,Infraestructura,-71.58668514500808,-34.03625806501235,Libertador General Bernardo O'Higgins,06,Cardenal Caro,062,Litueche,06203
Cuarteles de Carabineros,5TA. COM. PEUMO,Base,COMISARIA,Carabineros de Chile,Carabineros de Chile,Sociedad y cultura,Infraestructura,-71.16881402897265,-34.39586122024306,Libertador General Bernardo O'Higgins,06,Cachapoal,061,Peumo,06112
Cuarteles de Carabineros,3RA. COM. RANCAGUA ORIENTE,Base,COMISARIA,Carabineros de Chile,Carabineros de Chile,Sociedad y cultura,Infraestructura,-70.71105800045338,-34.173735000206555,Libertador General Bernardo O'Higgins,06,Cachapoal,061,Rancagua,06101
Cuarteles de Carabineros,3RA. COM. PICHILEMU,Base,COMISARIA,Carabineros de Chile,Carabineros de Chile,Sociedad y cultura,Infraestructura,-72.00212300044483,-34.38848799978827,Libertador General Bernardo O'Higgins,06,Cardenal Caro,062,Pichilemu,06201
Cuarteles de Carabineros,2DA. COM. SANTA CRUZ,Base,COMISARIA,Carabineros de Chile,Carabineros de Chile,Sociedad y cultura,Infraestructura,-71.36507100048976,-34.64092799980348,Libertador General Bernardo O'Higgins,06,Colchagua,063,Santa Cruz,06310
Cuarteles de Carabineros,2DA. COM. GRANEROS,Base,COMISARIA,Carabineros de Chile,Carabineros de Chile,Sociedad y cultura,Infraestructura,-70.72329900051925,-34.06932299988384,Libertador General Bernardo O'Higgins,06,Cachapoal,061,Graneros,06106
Cuarteles de Carabineros,1RA. COM. SAN FERNANDO,Base,COMISARIA,Carabineros de Chile,Carabineros de Chile,Sociedad y cultura,Infraestructura,-70.98876999978468,-34.58649000023032,Libertador General Bernardo O'Higgins,06,Colchagua,063,San Fernando,06301
Cuarteles de Carabineros,1RA. COM. RANCAGUA,Base,COMISARIA,Carabineros de Chile,Carabineros de Chile,Sociedad y cultura,Infraestructura,-70.74553199964785,-34.16670200007205,Libertador General Bernardo O'Higgins,06,Cachapoal,061,Rancagua,06101
Cuarteles de Carabineros,4TA. COM. RENGO,Base,COMISARIA,Carabineros de Chile,Carabineros de Chile,Sociedad y cultura,Infraestructura,-70.85046999995853,-34.404556999969756,Libertador General Bernardo O'Higgins,06,Cachapoal,061,Rengo,06115
Cuarteles de Carabineros,TENENCIA EL MANZANO,Base,TENENCIA,Carabineros de Chile,Carabineros de Chile,Sociedad y cultura,Infraestructura,-71.40129062142842,-34.182408970203966,Libertador General Bernardo O'Higgins,06,Cachapoal,061,Las Cabras,06107
Cuarteles de Carabineros,RETEN ANGOSTURA,Base,RETEN,Carabineros de Chile,Carabineros de Chile,Sociedad y cultura,Infraestructura,-70.96711972989813,-34.542074043840785,Libertador General Bernardo O'Higgins,06,Colchagua,063,San Fernando,06301
Cuarteles de Carabineros,RETEN HUIQUE,Base,RETEN,Carabineros de Chile,Carabineros de Chile,Sociedad y cultura,Infraestructura,-71.37585234623029,-34.52268762428573,Libertador General Bernardo O'Higgins,06,Colchagua,063,Palmilla,06306
Cuarteles de Carabineros,RETEN PEDRO ALCANTARA,Base,RETEN,Carabineros de Chile,Carabineros de Chile,Sociedad y cultura,Infraestructura,-71.83717729234974,-34.769572561822336,Libertador General Bernardo O'Higgins,06,Cardenal Caro,062,Paredones,06206
Cuarteles de Carabineros,RETEN PAREDONES,Base,RETEN,Carabineros de Chile,Carabineros de Chile,Sociedad y cultura,Infraestructura,-71.89943799983095,-34.64860800016205,Libertador General Bernardo O'Higgins,06,Cardenal Caro,062,Paredones,06206
Cuarteles de Carabineros,RETEN PANGAL (F),Base,RETEN,Carabineros de Chile,Carabineros de Chile,Sociedad y cultura,Infraestructura,-70.44424184369686,-34.238913536988555,Libertador General Bernardo O'Higgins,06,Cachapoal,061,Machalí,06108
Cuarteles de Carabineros,RETEN GUACARHUE,Base,RETEN,Carabineros de Chile,Carabineros de Chile,Sociedad y cultura,Infraestructura,-71.017098656482,-34.35450015413714,Libertador General Bernardo O'Higgins,06,Cachapoal,061,Quinta de Tilcoco,06114
Cuarteles de Carabineros,RETEN MILLAHUE,Base,RETEN,Carabineros de Chile,Carabineros de Chile,Sociedad y cultura,Infraestructura,-71.02439809812769,-34.30787107605542,Libertador General Bernardo O'Higgins,06,Cachapoal,061,Coinco,06103
Cuarteles de Carabineros,RETEN MALLOA,Base,RETEN,Carabineros de Chile,Carabineros de Chile,Sociedad y cultura,Infraestructura,-70.94523030243167,-34.44521302669774,Libertador General Bernardo O'Higgins,06,Cachapoal,061,Malloa,06109
Cuarteles de Carabineros,RETEN LOS LIRIOS,Base,RETEN,Carabineros de Chile,Carabineros de Chile,Sociedad y cultura,Infraestructura,-70.78515533226935,-34.22317692803027,Libertador General Bernardo O'Higgins,06,Cachapoal,061,Requínoa,06116
Cuarteles de Carabineros,RETEN OLIVAR,Base,RETEN,Carabineros de Chile,Carabineros de Chile,Sociedad y cultura,Infraestructura,-70.81848700048955,-34.20993199995721,Libertador General Bernardo O'Higgins,06,Cachapoal,061,Olivar,06111
Cuarteles de Carabineros,RETEN LOLOL,Base,RETEN,Carabineros de Chile,Carabineros de Chile,Sociedad y cultura,Infraestructura,-71.64750371850407,-34.72809023338207,Libertador General Bernardo O'Higgins,06,Colchagua,063,Lolol,06304
Cuarteles de Carabineros,RETEN LO MIRANDA,Base,RETEN,Carabineros de Chile,Carabineros de Chile,Sociedad y cultura,Infraestructura,-70.89097204049897,-34.190003887625295,Libertador General Bernardo O'Higgins,06,Cachapoal,061,Doñihue,06105
Cuarteles de Carabineros,RETEN LLALLAUQUEN,Base,RETEN,Carabineros de Chile,Carabineros de Chile,Sociedad y cultura,Infraestructura,-71.44078815369699,-34.21965526517876,Libertador General Bernardo O'Higgins,06,Cachapoal,061,Las Cabras,06107
Cuarteles de Carabineros,RETEN LAS ROSAS,Base,RETEN,Carabineros de Chile,Carabineros de Chile,Sociedad y cultura,Infraestructura,-71.24388499952663,-34.32694300043849,Libertador General Bernardo O'Higgins,06,Cachapoal,061,Peumo,06112
Cuarteles de Carabineros,RETEN LA ESTRELLA,Base,RETEN,Carabineros de Chile,Carabineros de Chile,Sociedad y cultura,Infraestructura,-71.65414826940453,-34.205005323870786,Libertador General Bernardo O'Higgins,06,Cardenal Caro,062,La Estrella,06202
Cuarteles de Carabineros,RETEN IDAHUE,Base,RETEN,Carabineros de Chile,Carabineros de Chile,Sociedad y cultura,Infraestructura,-71.13664770506385,-34.3187109576393,Libertador General Bernardo O'Higgins,06,Cachapoal,061,Coltauco,06104
Cuarteles de Carabineros,4TA. COM. CAUQUENES,Base,COMISARIA,Carabineros de Chile,Carabineros de Chile,Sociedad y cultura,Infraestructura,-72.30944500002093,-35.96697500000502,Maule,07,Cauquenes,072,Cauquenes,07201
Cuarteles de Carabineros,RETEN ACHIBUENO (F),Base,RETEN,Carabineros de Chile,Carabineros de Chile,Sociedad y cultura,Infraestructura,-71.3887319998467,-36.086714000031456,Maule,07,Linares,074,Linares,07401
Cuarteles de Carabineros,PREFECTURA DE CARABS. TALCA,Base,PREFECTURA,Carabineros de Chile,Carabineros de Chile,Sociedad y cultura,Infraestructura,-71.66675199981076,-35.42124899995276,Maule,07,Talca,071,Talca,07101
Cuarteles de Carabineros,PREFECTURA DE CARABS. LINARES,Base,PREFECTURA,Carabineros de Chile,Carabineros de Chile,Sociedad y cultura,Infraestructura,-71.59891900003686,-35.849323999950414,Maule,07,Linares,074,Linares,07401
Cuarteles de Carabineros,PREFECTURA DE CARABS. CURICÓ,Base,PREFECTURA,Carabineros de Chile,Carabineros de Chile,Sociedad y cultura,Infraestructura,-71.24242499954703,-34.98985200013227,Maule,07,Curicó,073,Curicó,07301
Cuarteles de Carabineros,5TA. COM. SAN JAVIER,Base,COMISARIA,Carabineros de Chile,Carabineros de Chile,Sociedad y cultura,Infraestructura,-71.73132700004773,-35.59325300030732,Maule,07,Linares,074,San Javier,07406
Cuarteles de Carabineros,4TA. COM. MOLINA,Base,COMISARIA,Carabineros de Chile,Carabineros de Chile,Sociedad y cultura,Infraestructura,-71.2800429995282,-35.116015000094635,Maule,07,Curicó,073,Molina,07304
Cuarteles de Carabineros,RETEN AGUA FRIA (F),Base,RETEN,Carabineros de Chile,Carabineros de Chile,Sociedad y cultura,Infraestructura,-71.0917962765653,-35.306628911794434,Maule,07,Curicó,073,Molina,07304
Cuarteles de Carabineros,4TA. COM. CANCHA RAYADA,Base,COMISARIA,Carabineros de Chile,Carabineros de Chile,Sociedad y cultura,Infraestructura,-71.65316199973472,-35.404850000379575,Maule,07,Talca,071,Talca,07101
Cuarteles de Carabineros,TENENCIA HUALANE,Base,TENENCIA,Carabineros de Chile,Carabineros de Chile,Sociedad y cultura,Infraestructura,-71.80567627580677,-34.97359978813285,Maule,07,Curicó,073,Hualañé,07302
Cuarteles de Carabineros,3RA. COM. TALCA,Base,COMISARIA,Carabineros de Chile,Carabineros de Chile,Sociedad y cultura,Infraestructura,-71.66675600018381,-35.42125100000166,Maule,07,Talca,071,Talca,07101
Cuarteles de Carabineros,3RA. COM. PARRAL,Base,COMISARIA,Carabineros de Chile,Carabineros de Chile,Sociedad y cultura,Infraestructura,-71.81754434889304,-36.148278769868206,Maule,07,Linares,074,Parral,07404
